OBJECTID,poiid,title,address,lon,lat,city,category_sec,checkin_num,photo_num,category_fst,foodT,cluster,Ndist
1,B2094656D365A4FC469D,农家饭店(驼梁西南),,113.80448,38.72477,311,中餐厅,2,0,餐饮,中式餐饮,2,29.098563322496453
2,B2094656D365A0FE459E,清秀山庄,,113.804,38.72393,311,中餐厅,11,4,餐饮,中式餐饮,2,73.28974442876735
3,B2094656D364AAFA4198,驼梁人家,,113.80432,38.72454,311,中餐厅,5,0,餐饮,中式餐饮,2,29.098563322496453
4,B2094751DB6FA0FC479B,五岳寨喜客之家,近郊灵寿县五岳寨景区内,113.84684,38.70802,311,河北菜,0,0,餐饮,中式餐饮,2,4116.370767956114
5,B2094457D169A7F4419B,나타나길,河北省 石家庄市 카나리아에,114.51655,38.53741,311,餐饮美食,1,1,餐饮,其它,2,5605.118967700399
6,B2094751DB6DA6FD4898,西柏坡纪念馆餐厅,近郊平山县,113.85972,38.40197,311,河北菜,0,0,餐饮,中式餐饮,2,8714.163246420914
7,B2094757D765A0FD4192,聚贤酒家,辛集市小辛庄(近东方漂染厂),115.254791,38.094461,311,四川菜,0,0,餐饮,中式餐饮,1,5851.392052906345
8,B2094457D16FA6FF4999,烟台,河北省 石家庄市 大悦城,114.37323,37.82768,311,餐饮美食,1,1,餐饮,其它,3,2067.4585428920805
9,B2094450D168A0FA459F,南佐会馆,河北省 石家庄市 二园区,114.365,37.8451,311,餐饮美食,0,0,餐饮,其它,3,2067.4585428920805
10,B2094751DB6BA1FC449F,大众,近郊辛集市南智邱镇(近金三角饭店),115.24152,37.75495,311,快餐厅,0,0,餐饮,小吃快餐,1,10824.416667300891
11,B2094751D265A2FF449D,阿娇小火锅,近郊赞皇县南门路西侧,114.28293,37.62244,311,火锅店,0,0,餐饮,中式餐饮,3,0.0
12,B2094751DB6FA0F8429A,王建中农家乐,近郊平山县西沙岭猪圈沟原生态景区(近驼梁风景区),113.65252,38.61384,311,快餐厅,0,0,餐饮,小吃快餐,2,17966.782958212276
13,B209475CD369A5F9419C,七汲鼎新全羊宴,平山县三汲乡七汲道口,113.750911,38.437174,311,烧烤,0,0,餐饮,中式餐饮,2,4503.9677398365975
14,B2094757D76BA2F54699,桥北饭店,近郊平山县小觉镇新桥路北政府路(近石驼加油站),113.72725,38.40116,311,河北菜,0,0,餐饮,中式餐饮,2,4503.9677398365975
15,B209475CD06DA5F94493,古月烧饼,平山县古月镇(近西柏坡),113.88566,38.28691,311,特色／地方风味餐厅,0,0,餐饮,中式餐饮,2,4973.652883455122
16,B209475CD36FA7F94993,清凉山滑雪场自助火锅,井陉矿区清凉山滑雪场内,114.02394,38.07048,311,火锅店,0,0,餐饮,中式餐饮,0,6555.108020854656
17,B2094456D069A6FA4698,大理岩生态家园,河北省 石家庄市 河北省石家庄市井陉县辛庄乡大理岩村,113.92713,38.09239,311,餐饮美食,0,0,餐饮,其它,0,8816.623990240538
18,B2094757DA69A6F9489C,南湖酒家新合街店,新华路 与新合街交口,114.18007,37.72334,311,日本料理,0,0,餐饮,国际餐饮,3,0.0
19,B2094757DA69A6F9479D,一麻一辣石家庄店,石家庄市 桥东东区四中路 中国盒子1楼（休门街口）,114.18007,37.72334,311,休闲餐饮场所,41,4,餐饮,其它,3,0.0
20,B2094750D36BABF8479E,starbucks石家庄,建华南大街136号万达广场裕华西路15号万象天成中山西路11号乐汇城,114.18007,37.72334,311,餐饮美食,1,0,餐饮,其它,3,0.0
21,B209475CD065A7FB4492,嘎嘣脆冰糖葫芦专卖店 赞皇店,赞皇县城,114.28293,37.62244,311,特色／地方风味餐厅,0,0,餐饮,中式餐饮,3,0.0
22,B2094656D364A6F8439D,蒙自过桥米线,,114.38582,37.66078,311,中餐厅,0,0,餐饮,中式餐饮,3,40.49222148032107
23,B2094656D364A6F9409B,蜂蜜小面包(康泰药房东北),,114.38631,37.66237,311,糕饼店,0,0,餐饮,甜点饮品,3,103.48067791033584
24,B2094656D364A6FF4298,欣欣小吃,,114.38312,37.65974,311,快餐厅,0,0,餐饮,小吃快餐,3,12.373953704800254
25,B2094656D364A6FF439B,新天利快餐,,114.38521,37.65912,311,中餐厅,0,0,餐饮,中式餐饮,3,58.511243853673264
26,B2094656D364A6FF459A,衡水饭店,,114.38451,37.65395,311,中餐厅,0,0,餐饮,中式餐饮,3,238.24189064882083
27,B2094656D364A6FF4593,钱雨饭店,,114.38404,37.65184,311,中餐厅,0,0,餐饮,中式餐饮,3,238.24189064882083
28,B2094656D364A6FF499D,好吃来蛋糕大世界(同和堂药房南),,114.38586,37.65923,311,糕饼店,1,0,餐饮,甜点饮品,3,58.511243853673264
29,B2094656D364A6F8409C,温州蛋糕房,,114.38719,37.65917,311,糕饼店,0,0,餐饮,甜点饮品,3,117.26776737024879
30,B2094656D364A6FE4992,大胖涮锅No.359,,114.38555,37.66308,311,火锅店,0,0,餐饮,中式餐饮,3,103.48067791033584
31,B2094656D364A6F8499D,吉果多魔幻冰淇淋馆,,114.38774,37.66274,311,冷饮店,43,19,餐饮,甜点饮品,3,132.42803946712408
32,B2094656D364A6FF4093,美味步步高,,114.38536,37.66078,311,糕饼店,1,0,餐饮,甜点饮品,3,40.49222148032107
33,B2094656D364A6FF4299,哥俩好饭店,,114.38298,37.65975,311,中餐厅,1,0,餐饮,中式餐饮,3,12.373953704800254
34,B2094656D364A6F84399,沧州五香鸡,,114.38574,37.65981,311,餐饮美食,3,1,餐饮,其它,3,65.35242300511652
35,B209475CD068A5FE459D,英如饭店,辛集市彭六佐村西公路,115.15663,37.82549,311,火锅店,0,0,餐饮,中式餐饮,1,7765.781114991928
36,B209475CD369A3F5449E,常好饭店,辛集市233省道(高速路口),115.2280831,37.8666469,311,火锅店,0,0,餐饮,中式餐饮,1,3526.2762907607757
37,B2094757D56FA7FB489D,南坪小镇,中国河北省鹿泉市南佃线,114.41276015,37.90100559,311,中餐厅,33,11,餐饮,中式餐饮,0,937.3688666163898
38,B2094450D664A4F84999,HILIFE养生火锅,山前大道与S232（京赞公路）交叉口往南，过龙泉花园再往南2KM,114.31066861,37.94977197,311,餐饮美食,0,0,餐饮,其它,0,4227.846955979482
39,B209475CD069A4F4469E,顺通饭店,元氏县装院路(鹿泉交界处),114.40987,37.89289,311,快餐厅,0,0,餐饮,小吃快餐,0,901.9107940683356
40,B2094751DB68AAFC449F,地锅炖鸡家常菜,东昌府区湖西路口(区法院南侧),114.375534,37.92712,311,餐饮美食,0,0,餐饮,其它,0,4369.971255996862
41,B2094450D169A1FE499D,明悦大酒店,河北省 石家庄市 石家庄新华路与泰华街交叉口,114.40402,37.8839,311,餐饮美食,0,0,餐饮,其它,0,241.02805832284562
42,B2094457D16FA1FE439D,奶糖,河北省 石家庄市 石家庄,114.40605,37.88536,311,餐饮美食,0,0,餐饮,其它,0,241.02805832284562
43,B2094450D668A2FC419E,青岛,河北省 石家庄市 丰海区,114.46922,37.97641,311,餐饮美食,0,0,餐饮,其它,0,228.6013105957596
44,B2094450D06CA0F9429A,隆丰阁饭店,河北省 石家庄市 栾城县吴家屯村北口,114.52146,37.93506,311,餐饮美食,1,1,餐饮,其它,0,1976.2413094539422
45,B2094757D66CA1F4449A,光明渔港,石家庄友谊大街裕华路口,114.51297106,37.951523725,311,餐饮美食,53,13,餐饮,其它,0,1458.585480706427
46,B2094757D768A6FD4392,顺路驴肉店,元氏县殷村经元路装院路,114.471715,37.841409,311,餐饮美食,53,20,餐饮,其它,3,7067.6181836997175
47,B2094656D364A1FB469B,(石家庄南服务区)餐厅,,114.42932,37.94544,311,中餐厅,15,2,餐饮,中式餐饮,0,3909.4215946563154
48,B2094457D16EA6FB429F,威尼斯水世界,河北省 石家庄市 石家庄体育大街,114.52934,37.90222,311,餐饮美食,0,0,餐饮,其它,0,3716.488643252396
49,B209475CD06DA4F9459E,串串香,红旗大街(近锦山城),114.46962,37.93041,311,火锅店,0,0,餐饮,中式餐饮,0,0.0
50,B209475CD365A1FE4993,鸟天下野味庄园,裕翔街东尹村西口,114.50899,37.96426,311,火锅店,0,0,餐饮,中式餐饮,0,1100.599326265328
51,B209475CD36FA6FC449C,吉祥馄饨,红旗大街(南二环口),114.46962,37.93041,311,特色／地方风味餐厅,0,0,餐饮,中式餐饮,0,0.0
52,B2094753D36CA1F9449A,麦克风宫家庄店,康富街小广场西侧,114.469572,37.97869,311,冷饮店,0,0,餐饮,甜点饮品,0,7.141083017285306
53,B2094753D36CA6F84693,麦西尔西饼屋三店,桥园路13号,114.466433,37.976957,311,糕饼店,0,0,餐饮,甜点饮品,0,141.03511293875127
54,B2094751DB68ABF8419F,喜得福面馆,桥西区红旗大街(近新石中路),114.46962,37.93041,311,快餐厅,0,0,餐饮,小吃快餐,0,0.0
55,B2094751DB69A6FA469D,京东食府,桥西区红旗大街(裕华路口),114.46962,37.93041,311,河北菜,0,0,餐饮,中式餐饮,0,0.0
56,B2094757D56FA7FC499F,梦味思饭店,中国河北省石家庄市区康富街,114.46964762,37.97843804,311,中餐厅,0,0,餐饮,中式餐饮,0,22.390297529884325
57,B2094757D56FA5FD439D,福建沙县小吃(新世纪小区东),中国河北省石家庄市区康富街,114.46962023,37.97863824,311,快餐厅,0,0,餐饮,小吃快餐,0,7.141083017285306
58,B2094757D56FA5FA479F,老四川饭店(祥和路),中国河北省石家庄市区祥和路,114.46663764,37.97821506,311,四川菜,0,0,餐饮,中式餐饮,0,141.03511293875127
59,B2094656D364A0F8469D,栾城大酒楼,,114.65307,37.88808,311,综合酒楼,40,15,餐饮,中式餐饮,3,128.9370341064428
60,B2094656D364A0FE499F,天府会馆,,114.65697,37.8921,311,中餐厅,71,28,餐饮,中式餐饮,3,260.62449976818124
61,B2094656D364A0FF419D,四川酒家(鑫源路),,114.64854,37.88723,311,四川菜,37,6,餐饮,中式餐饮,3,57.47726474407782
62,B2094656D364A0F8449F,神峰茶楼,,114.66163,37.88866,311,茶艺馆,9,5,餐饮,甜点饮品,3,161.47379300611962
63,B2094656D364A0FE479D,普天和,,114.64897,37.89093,311,中餐厅,2,0,餐饮,中式餐饮,3,76.28227610100222
64,B2094656D364A0FF429D,顺和园,,114.65139,37.8875,311,中餐厅,15,9,餐饮,中式餐饮,3,48.20681882641641
65,B2094656D364A0F8429D,西街快餐,,114.65763,37.88603,311,中餐厅,10,1,餐饮,中式餐饮,3,54.45408970422038
66,B2094757D56FA1FF409E,啊美妮饭店,中国河北省栾城县鑫源路,114.64902344,37.88770209,311,中餐厅,6,5,餐饮,中式餐饮,3,40.186253485846095
67,B2094656D364A0FF4699,重庆酒家,,114.65048,37.88468,311,四川菜,6,3,餐饮,中式餐饮,3,323.57942241234787
68,B2094656D364A0F84399,吉祥西饼屋,,114.65565,37.88734,311,糕饼店,7,1,餐饮,甜点饮品,3,80.25083913291675
69,B2094656D364A0F8469B,铁锅大鲶鱼,,114.65453,37.88821,311,中餐厅,2,0,餐饮,中式餐饮,3,128.9370341064428
70,B2094656D364A0F84898,富丽华快餐,中山东路,114.64807,37.88759,311,中餐厅,3,3,餐饮,中式餐饮,3,57.47726474407782
71,B2094455DA6AABF54792,乐派客,河北省 石家庄市 栾城县新开街,114.66081,37.88996,311,餐饮美食,0,0,餐饮,其它,3,161.47379300611962
72,B2094455DA6AA2FB4099,佐美庄园,河北省 石家庄市 石家庄市高新区,114.64093,37.9601,311,餐饮美食,1,0,餐饮,其它,0,4173.073435001847
73,B2094454D164A5F5429C,密密,河北省 石家庄市 新华区,114.72148,37.84137,311,餐饮美食,0,0,餐饮,其它,3,6978.4039278360815
74,B209475CD06DA5FA4192,米莎贝尔 金方城店,栾城金方城底商(惠安小区对面),114.64718,37.8923,311,甜品店,0,0,餐饮,甜点饮品,3,218.8139655517238
75,B209475CD06DA4F94893,剧场大盘鸡,栾城县华兴街(近联通公司),114.648,37.88904,311,快餐厅,0,0,餐饮,小吃快餐,3,161.34962319280072
76,B2094753D76AA0FA469E,缘聚德红焖羊肉(栾城店),石家庄市栾城县政府人民广场华兴街(宏远路口),114.648328,37.900278,311,中餐厅,1,0,餐饮,中式餐饮,0,8.717473022136735
77,B2094450D669A7FC4899,星之翼咖吧,河北省 石家庄市 石家庄栾城,114.66185,37.90184,311,餐饮美食,0,0,餐饮,其它,0,251.30690252238628
78,B2094450D064ABFB449E,金钟仁街,河北省 石家庄市 hj,114.65674,37.89462,311,餐饮美食,1,0,餐饮,其它,3,280.9371085789614
79,B2094450D068A0FB4893,渝新干锅鸭头,河北省 石家庄市 西街花园,114.65298,37.89635,311,餐饮美食,1,0,餐饮,其它,3,381.915464244259
80,B2094751DB6FA7FD439A,农家饺子馆,近郊栾城县窦妪工业区三农公司对面(近107国道),114.62065,37.89973,311,快餐厅,0,0,餐饮,小吃快餐,0,2292.145179492931
81,B2094751DB6FA4FD479D,侯氏涮园(栾城店),近郊栾城县新开街(汇源路口西南侧),114.654,37.89211,311,火锅店,0,0,餐饮,中式餐饮,3,111.30290653580656
82,B2094751DB68A6F4469C,柏林美食城,近郊赵县南外环(柏林街口东南角),114.63726,37.8692,311,河北菜,0,0,餐饮,中式餐饮,3,2075.859995806763
83,B2094751DB6AA7FB4398,祥福园蛋糕,近郊栾城县宏达路,114.66076,37.89975,311,甜品店,0,0,餐饮,甜点饮品,3,251.30690252238628
84,B2094757D76AA2FA4399,新疆大盘鸡,栾城县城中心(近福强路),114.648318,37.9002,311,清真餐馆,0,0,餐饮,中式餐饮,0,8.717473022136735
85,B2094757D76AA7F84393,山国饮艺 藁城店,昌盛街信誉楼南侧,114.7302192,37.9646278,311,茶艺馆,0,0,餐饮,甜点饮品,0,4652.977143126693
86,B2094757D76BA1FC4298,小食堂,近郊宏达路(近万利福),114.64585,37.8943,311,快餐厅,0,0,餐饮,小吃快餐,3,251.15319811595313
87,B2094757D765A5F9459E,杨麻子大饼,近郊栾城县新开大街(汇源路口北侧),114.65584,37.88505,311,河北菜,0,0,餐饮,中式餐饮,3,191.18507151431928
88,B2094656D364A0FE4793,巴国布衣风味酒家,,114.64983,37.89103,311,特色／地方风味餐厅,0,0,餐饮,中式餐饮,3,76.28227610100222
89,B2094656D364A0FE489C,大胖涮锅栾城连锁店,,114.65316,37.89136,311,火锅店,2,2,餐饮,中式餐饮,3,111.30290653580656
90,B2094450D06FA7F5459B,兔子家的美食屋,河北省 石家庄市 微信:1992582241,114.65589,37.90556,311,餐饮美食,0,0,餐饮,其它,0,666.7416145691442
91,B2094457D06EA3FB4893,北京市,河北省 石家庄市 海淀区,114.66836,37.88806,311,餐饮美食,1,1,餐饮,其它,3,594.3544238551113
92,B2094656D364A0F8409B,好运来蛋糕房,,114.65813,37.88574,311,糕饼店,0,0,餐饮,甜点饮品,3,54.45408970422038
93,B2094656D364A0F8419B,稻花香糕点屋,,114.66057,37.88607,311,糕饼店,0,0,餐饮,甜点饮品,3,53.81649162098864
94,B2094656D364A0F84199,丽缘酒楼,,114.66117,37.88617,311,综合酒楼,0,0,餐饮,中式餐饮,3,53.81649162098864
95,B2094656D364A0F8439C,特色老赵州,,114.65602,37.888,311,中餐厅,0,0,餐饮,中式餐饮,3,80.25083913291675
96,B2094656D364A0F84693,顿顿香,,114.65146,37.88793,311,中餐厅,0,0,餐饮,中式餐饮,3,48.20681882641641
97,B2094457D16CA5FC419E,StarBucks,河北省 石家庄市 河北省石家庄市,114.00872,38.01276,311,餐饮美食,0,0,餐饮,其它,0,5670.652693477252
98,B2094457D169A6FC459F,青青缘火锅城,河北省 石家庄市 井陉县,114.13976,38.03283,311,餐饮美食,1,1,餐饮,其它,0,502.8330755581812
99,B2094656D364A1FA499C,(井陉服务区)快餐厅,,114.06587,37.98883,311,中餐厅,5,2,餐饮,中式餐饮,0,1708.465437196552
100,B2094751DB6FA2FC4798,锦山宾馆餐厅,近郊井陉县锦山风景区锦山宾馆内,114.07795,38.00089,311,河北菜,0,0,餐饮,中式餐饮,0,0.0
101,B2094751DB6FA5F5479E,金雨食坊干锅鸭,近郊井陉县汽车站西侧(近火车站),114.07795,38.00089,311,河北菜,0,0,餐饮,中式餐饮,0,0.0
102,B2094751DB6DA0FE419E,千喜龙虾,桥西区西郊公园,114.14894,38.03217,311,烧烤,0,0,餐饮,中式餐饮,0,312.5524058811987
103,B2094757D46AA6FC4993,金雨食坊干锅鸭,井陉县汽车站西侧(近火车站),114.145385,38.031925,311,中餐厅,0,0,餐饮,中式餐饮,0,0.0
104,B2094757D765A5F84198,锦山宾馆餐厅,井陉县锦山风景区锦山宾馆内,114.145385,38.031925,311,中餐厅,1,0,餐饮,中式餐饮,0,0.0
105,B2094751DB6EAAF5429C,立禾真味酸汤鱼,裕华区国际大道57-5号,114.29132,37.9846,311,火锅店,0,0,餐饮,中式餐饮,0,4227.846955979482
106,B209475CD36FA7FC469D,聚贤酒家,辛集市小辛庄(近东方漂染厂),115.29229,37.91783,311,四川菜,0,0,餐饮,中式餐饮,1,0.0
107,B209475CD36FA6FC4592,永和大王,辛集市,115.29229,37.91783,311,快餐厅,0,0,餐饮,小吃快餐,1,0.0
108,B209475CD36EA4F44899,圣帝凯莱大酒店中餐厅,辛集市市府东大街58号近教育路,115.2326692,37.9427513,311,广东菜,0,0,餐饮,中式餐饮,1,684.9244110058692
109,B2094751DB6AA6FA429B,迷你西饼屋,近郊辛集市旧城镇(近307国道),115.3934,38.00748,311,甜品店,2,1,餐饮,甜点饮品,1,10313.616030777755
110,B2094752D26CAAFC4393,柳润庄园,近郊辛集市双柳树,115.29653,37.95482,311,河北菜,27,14,餐饮,中式餐饮,1,2804.9089620621094
111,B2094656D365A0FC4392,辛晋饭店,,115.22071,37.98241,311,中餐厅,0,0,餐饮,中式餐饮,1,159.46727831326996
112,B2094656D365A0F84299,地锅美食,,115.219,37.9829,311,中餐厅,0,0,餐饮,中式餐饮,1,30.79848380222399
113,B2094456D06BA3F4439C,骄龙豆捞,河北省 石家庄市 辛集市,115.26946,37.93792,311,餐饮美食,1,1,餐饮,其它,1,384.73444619066987
114,B2094456D06BA3F44192,江龙豆捞,河北省 石家庄市 辛集市,115.26946,37.94138,311,餐饮美食,0,0,餐饮,其它,1,384.73444619066987
115,B2094656D365A7F94598,辛集第一碗,,115.21866,37.98297,311,中餐厅,3,0,餐饮,中式餐饮,1,30.79848380222399
116,B2094450D16DA3FC4199,浔阳楼,河北省 石家庄市 苏州昆山市,115.24305,37.95036,311,餐饮美食,0,0,餐饮,其它,1,1242.7255747065838
117,B2094457D06AA6F54892,鱼,河北省 石家庄市 中国,115.22399,38.0122,311,餐饮美食,0,0,餐饮,其它,1,2250.3631192133535
118,B2094454D16BA4FF4792,爱到眉心皱。,河北省 石家庄市 石家庄,114.94672,38.12102,311,餐饮美食,0,0,餐饮,其它,1,1506.977383770074
119,B2094454D16AA4FC499D,影星,河北省 石家庄市 石家庄,114.91595,38.16356,311,餐饮美食,0,0,餐饮,其它,1,229.19634894523
120,B209475CD069A4F4479B,聚福祥饺子,藁城市市府路117号(东城小学对面),114.85676,38.03546,311,特色／地方风味餐厅,0,0,餐饮,中式餐饮,1,40.638708888096865
121,B209475CD06DA5F94799,米莎贝尔 无极店,无极县正义街(近无极路),114.96926,38.17447,311,甜品店,0,0,餐饮,甜点饮品,1,331.40266686857103
122,B2094757D76BAAFB409C,老北京冰糖葫芦,迎宾大道376-1号北国超市门口,114.8936694,38.0290859,311,糕饼店,18,9,餐饮,甜点饮品,1,0.0
123,B2094656D368A0F9459A,桃园山珍,,114.96694,38.17707,311,综合酒楼,23,3,餐饮,中式餐饮,1,53.73634782596629
124,B2094757D56FA2F54893,紫城饭店,中国河北省晋州市G307,114.98226915,38.0248744,311,中餐厅,9,0,餐饮,中式餐饮,1,3023.7873055296286
125,B2094656D364A2F8409D,圆梦蛋糕,,114.8587,38.03233,311,糕饼店,0,0,餐饮,甜点饮品,1,38.27559674716552
126,B2094656D364A2F4429B,家家福美食园,,114.86209,38.03588,311,中餐厅,3,2,餐饮,中式餐饮,1,54.3109248561615
127,B2094450D164A1FA4992,小楠,河北省 石家庄市 马古庄军辉饭店西行200米,114.91342,38.16302,311,餐饮美食,0,0,餐饮,其它,1,229.19634894523
128,B2094656D364A2F8419E,万顺快餐,,114.85733,38.03228,311,中餐厅,0,0,餐饮,中式餐饮,1,120.11906994318223
129,B2094656D364A2F8449E,九门清真饭店,,114.85259,38.03639,311,清真餐馆,171,3,餐饮,中式餐饮,1,39.473376009442845
130,B2094656D364A2F8449C,东悦腊肉面,,114.85253,38.03705,311,中餐厅,0,0,餐饮,中式餐饮,1,56.021432186449566
131,B2094656D364A2F84493,金源茶社,,114.85236,38.03892,311,茶艺馆,0,0,餐饮,甜点饮品,1,208.46682910767674
132,B2094656D364A2FB479C,东街一绝砂锅居,,114.85404,38.03543,311,中餐厅,0,0,餐饮,中式餐饮,1,20.1741717619711
133,B2094656D364A2FB4792,上海香菲蛋糕世界连锁分店(市府东路),,114.85427,38.03542,311,糕饼店,0,0,餐饮,甜点饮品,1,20.1741717619711
134,B2094656D364A2FB489C,五元川菜馆,,114.85562,38.03543,311,四川菜,0,0,餐饮,中式餐饮,1,99.89740296732302
135,B2094656D364A2F4409A,老李板面馆,,114.85948,38.03549,311,中餐厅,0,0,餐饮,中式餐饮,1,63.06767016559554
136,B2094656D368A0F94699,新疆米泉牧园饭庄,,114.95887,38.17622,311,中餐厅,0,0,餐饮,中式餐饮,1,425.04848481753083
137,B2094656D364A2FF4798,小小蒸碗骨头馆,,114.85889,38.03086,311,中餐厅,0,0,餐饮,中式餐饮,1,145.50812872218472
138,B2094656D364A2FF499B,百姓放心包子第四厅,,114.85939,38.03269,311,餐饮美食,0,0,餐饮,其它,1,64.88693886312329
139,B2094656D364A2FF4999,昌盛宴会厅,,114.85921,38.03875,311,中餐厅,0,0,餐饮,中式餐饮,1,134.1281614352737
140,B2094656D364A2FF499C,鑫圆美食城,,114.85879,38.03759,311,中餐厅,0,0,餐饮,中式餐饮,1,72.27670231898698
141,B2094656D364A2F8409B,福仁居,,114.85879,38.03694,311,中餐厅,0,0,餐饮,中式餐饮,1,72.27670231898698
142,B2094751DB65AAFE4092,齐洽蜀香饭店,近郊无极县齐洽旧转鼓区门口,114.96265,38.12618,311,四川菜,1,1,餐饮,中式餐饮,1,1506.977383770074
143,B2094757D56FA2FF4692,顺兴羊肉馆,中国河北省藁城市S234,114.95218045,38.03820855,311,中餐厅,0,0,餐饮,中式餐饮,1,3023.7873055296286
144,B2094757D56FA1FB4299,麒麟酒家,中国河北省藁城市,114.86532986,38.03599284,311,中餐厅,0,0,餐饮,中式餐饮,1,132.39132948758538
145,B2094757D768A6F9419F,奥尔良烤鸡,迎宾大道376-1号北国超市内,114.8936694,38.0290859,311,烧烤,0,0,餐饮,中式餐饮,1,0.0
146,B2094757D769A7FC409B,周黑鸭 迎宾大道店,迎宾大道376-1号北国超市内,114.8936694,38.0290859,311,特色／地方风味餐厅,0,0,餐饮,中式餐饮,1,0.0
147,B2094757D76AA3F9499E,香掉渣烧饼,迎宾大道376-1号北国超市内,114.8936694,38.0290859,311,特色／地方风味餐厅,0,0,餐饮,中式餐饮,1,0.0
148,B2094757D76BA1FC429C,百特鸡煲,桥东区胜利路178号(冀兴花园对面),114.85908,38.03216,311,火锅店,0,0,餐饮,中式餐饮,1,38.27559674716552
149,B2094757D765A0FF4492,鹏辉鸡煲之家,近郊藁城市市府东路(东城幼儿园对面),114.8668,38.03627,311,河北菜,0,0,餐饮,中式餐饮,1,132.39132948758538
150,B2094656D368A0F94493,天成酒家,,114.96755,38.17713,311,中餐厅,0,0,餐饮,中式餐饮,1,53.73634782596629
151,B2094457D16BA3FC409A,香格里拉,河北省 石家庄市 亚龙湾,114.96319,38.16342,311,餐饮美食,1,1,餐饮,其它,1,1338.3927424459546
152,B2094656D364A2F4409E,上海蛋糕面包房分店,,114.8602,38.0355,311,糕饼店,1,0,餐饮,甜点饮品,1,43.79018241774907
153,B2094656D364A2F44092,藁兰拉面,,114.8607,38.0355,311,中餐厅,0,0,餐饮,中式餐饮,1,34.17443474821032
154,B2094656D364A2F44093,满意快餐馆,,114.86109,38.03551,311,中餐厅,0,0,餐饮,中式餐饮,1,34.17443474821032
155,B2094656D364A2F44192,阿辉餐馆,,114.86271,38.03589,311,中餐厅,0,0,餐饮,中式餐饮,1,54.3109248561615
156,B2094656D364A2F4429E,布衣阁快餐厅,,114.86101,38.03588,311,中餐厅,0,0,餐饮,中式餐饮,1,2.6273973147206697
157,B2094656D364A2F4429F,吉源蛋糕房,,114.86098,38.03588,311,糕饼店,0,0,餐饮,甜点饮品,1,2.6273973147206697
158,B2094656D364A2F44399,保定府,,114.8579,38.03583,311,综合酒楼,0,0,餐饮,中式餐饮,1,92.84143385258601
159,B2094656D364A2F4449B,大拇指蛋糕房,,114.85684,38.03582,311,糕饼店,0,0,餐饮,甜点饮品,1,40.638708888096865
160,B2094457D36FA5FF4598,三十一种口味冰淇凌店,河北省 石家庄市 刚果布拉柴维尔,114.8677,38.03757,311,餐饮美食,0,0,餐饮,其它,1,164.64630370894446
161,B2094751DB65A1F5479D,川江府,桥东区平安大街(栗中路东侧),115.21615,38.0386,311,四川菜,0,0,餐饮,中式餐饮,1,0.0
162,B2094751DB65A6F54492,紫韵阁粗粮馆,桥东区平安大街东侧(近中基礼域),115.21615,38.0386,311,餐饮美食,0,0,餐饮,其它,1,0.0
163,B2094757D768A0FD469B,洪财烤肉,平安大街与中山路交叉口市招待处院内(近世纪公园),115.2161573,38.0386079,311,烧烤,0,0,餐饮,中式餐饮,1,1.086449914060833
164,B2094757D56FA7F4449F,小肥羊(西苑街),西苑街130,115.19682753,38.17933187,311,火锅店,54,23,餐饮,中式餐饮,1,379.6920109605713
165,B2094656D364A1FA489F,(辛集服务区)餐厅(1),,115.20251,38.0233,311,中餐厅,9,1,餐饮,中式餐饮,1,2078.845600293432
166,B2094450D16DABF84399,河北省晋州市海滩村浩冲饭店,河北省 石家庄市 河北省晋州市海滩村集市东北角,115.18836,38.08849,311,餐饮美食,0,0,餐饮,其它,1,5851.392052906345
167,B209475CD069A4F44993,心岛怡岸养生餐厅,平山县温塘温塘路1号,113.99516,38.26433,311,中餐厅,0,0,餐饮,中式餐饮,2,254.18657012380123
168,B209475CD36FA6FC429E,白鹿温泉餐厅,平山县温塘镇(近西柏坡),113.97354,38.26729,311,河北菜,0,0,餐饮,中式餐饮,2,1915.9999197701175
169,B2094757D76BA1FE4892,平山县旅游服务中心,近郊平山县温塘镇(近温塘镇政府),113.99657,38.26633,311,河北菜,0,0,餐饮,中式餐饮,2,254.18657012380123
170,B2094454D16FA3FC4493,胡欣月,河北省 石家庄市 香港街九龙区,114.20473,38.25908,311,餐饮美食,0,0,餐饮,其它,2,213.6084971102981
171,B209475CD068A7F94892,福盛庄园,平山县电厂路南义洋村南,114.22416,38.25075,311,河北菜,0,0,餐饮,中式餐饮,2,406.7841931832411
172,B209475CD069A4F44792,香乐基,平山县冶河东路,114.20465,38.25716,311,快餐厅,0,0,餐饮,小吃快餐,2,213.6084971102981
173,B209475CD069A4F5419B,米莎贝尔 平山县店,平山县建设北大街28号,114.1839,38.26431,311,甜品店,0,0,餐饮,甜点饮品,2,350.56392687045224
174,B209475CD06EA5FF4292,万溢香,平山县东川街,114.21414,38.25815,311,河北菜,0,0,餐饮,中式餐饮,2,271.9121006729798
175,B209475CD36FA7FF429D,五洲饭店,平山县桥西建设北大街6号(近县政府),114.18426,38.26117,311,河北菜,0,0,餐饮,中式餐饮,2,350.56392687045224
176,B2094456D064AAFE449B,北京市,河北省 石家庄市 海淀区成府路,114.21969,38.25178,311,餐饮美食,3,2,餐饮,其它,2,406.7841931832411
177,B2094457D56BAAF4429D,iphone 6,河北省 石家庄市 中山路,114.25568,38.18954,311,餐饮美食,0,0,餐饮,其它,2,7342.139325485973
178,B209475CD068ABFF4599,井陉服务区餐厅,京昆高速(近井陉西收费站),114.37371,38.13366,311,快餐厅,0,0,餐饮,小吃快餐,0,2511.5962605619397
179,B2094751DB6EA6FD4293,街边面条,桥西区友谊大街(工农路口),114.38896,38.1528,311,餐饮美食,0,0,餐饮,其它,0,0.0
180,B2094751DB6DA2F8479F,梓竹林,桥西区友谊大街祥隆泰2楼,114.38896,38.1528,311,快餐厅,0,0,餐饮,小吃快餐,0,0.0
181,B2094757D46CABF9459F,百尺杆饺子,近郊鹿泉市李村,114.347747,38.195696,311,中餐厅,40,28,餐饮,中式餐饮,2,5977.448780732184
182,B2094757D46AA6FC4693,军琪土巴人火锅,桥西区友谊大街(中山路口),114.38896,38.1528,311,火锅店,0,0,餐饮,中式餐饮,0,0.0
183,B2094757D768A6FA4298,意大利冰淇淋店,桥西区友谊大街(近水上公园),114.38896,38.1528,311,甜品店,0,0,餐饮,甜点饮品,0,0.0
184,B2094757D768A6FA429E,钟家庄缸炉烧饼,桥西区友谊大街(钟家庄街口),114.38896,38.1528,311,快餐厅,0,0,餐饮,小吃快餐,0,0.0
185,B2094757D76AA3F9419C,老六烧烤,桥西区友谊大街,114.38896,38.1528,311,东北菜,0,0,餐饮,中式餐饮,0,0.0
186,B2094757D76AA3F5479A,成都锅魁小吃,桥西区友谊大街(工农路口),114.38896,38.1528,311,快餐厅,0,0,餐饮,小吃快餐,0,0.0
187,B2094757D76AA0F4429C,小天地,桥西区友谊大街(近联盟路),114.38896,38.1528,311,快餐厅,0,0,餐饮,小吃快餐,0,0.0
188,B2094757D765A0FC4792,托福酒家,桥西区友谊大街(近高教区),114.38896,38.1528,311,河北菜,0,0,餐饮,中式餐饮,0,0.0
189,B2094454D16DA0FB449F,趣捞料理火锅,河北省 石家庄市 藁城机场路与正无路交叉口南行三十米路西,114.720993,38.133628,311,餐饮美食,0,0,餐饮,其它,0,2480.805134680197
190,B209475CD06BA3F54898,远洋城MALL美食城,中山路(长征街口),114.68872,38.26875,311,河北菜,0,0,餐饮,中式餐饮,2,0.0
191,B209475CD064A3FF459E,肯德基 翟营大街店,中山路(翟营大街口),114.68872,38.26875,311,快餐厅,0,0,餐饮,小吃快餐,2,0.0
192,B209475CD068A0F84592,老五饭店,藁城市204省道,114.74464,38.12131,311,烧烤,0,0,餐饮,中式餐饮,0,964.1178092317151
193,B2094757D46EA0F8499D,新食界美食天地,长安区中山路东尚MALL4楼美食广场(人民广场东侧),114.68872,38.26875,311,快餐厅,0,0,餐饮,小吃快餐,2,0.0
194,B2094757D46AA1F9469C,天津糖敦葫芦,长安区中山路(近博物馆),114.68872,38.26875,311,快餐厅,0,0,餐饮,小吃快餐,2,0.0
195,B2094757D46AA6FC419A,温馨川菜馆,长安区中山路126号凯嘉大厦,114.68872,38.26875,311,四川菜,0,0,餐饮,中式餐饮,2,0.0
196,B2094757D46AA6FC4198,乐膳王麻辣烫 康乐街店,长安区中山路(康乐街口),114.68872,38.26875,311,快餐厅,0,0,餐饮,小吃快餐,2,0.0
197,B2094757D46AAAF5409E,老丁盖浇饭,长安区中山路(青园街口),114.68872,38.26875,311,快餐厅,0,0,餐饮,小吃快餐,2,0.0
198,B2094757D46AAAF54292,鱼酷烤全鱼 中山路店,桥西区中山路(近西二环),114.68872,38.26875,311,烧烤,0,0,餐饮,中式餐饮,2,0.0
199,B2094757D46BA6FA439D,刘记坛肉,中山路中华大街口东侧(近南小胡同),114.6887231,38.2687559,311,特色／地方风味餐厅,0,0,餐饮,中式餐饮,2,0.0
200,B2094757D46BAAFC4592,南方渔村,长安区中山路(近建华大街),114.68872,38.26875,311,海鲜酒楼,0,0,餐饮,中式餐饮,2,0.0
201,B2094757D464A5FA479F,88酒吧,桥东区中山路大经街口(近南三条),114.68872,38.26875,311,北京菜,106,31,餐饮,中式餐饮,2,0.0
202,B2094757D465A5FE439D,鱼酷烤全鱼 东尚店,长安区中山路与青园街交叉口向东100米路北东尚2楼,114.68872,38.26875,311,烧烤,0,0,餐饮,中式餐饮,2,0.0
203,B2094757D768A0FC4593,天山雪莲快餐厅,桥东区中山路与北人字街交叉口向西50米路南,114.68872,38.26875,311,快餐厅,0,0,餐饮,小吃快餐,2,0.0
204,B2094757D768A0FC4699,好莱屋快餐厅,桥东区中山路与北人字街交叉口向西50米路北,114.68872,38.26875,311,快餐厅,0,0,餐饮,小吃快餐,2,0.0
205,B2094757D768A0FD419E,贝奇美食,长安区中山路裕彤体育中心,114.68872,38.26875,311,快餐厅,0,0,餐饮,小吃快餐,2,0.0
206,B2094757D769A0F4409C,中山路小肥羊,长安区中山路(近中医院),114.68872,38.26875,311,火锅店,0,0,餐饮,中式餐饮,2,0.0
207,B2094757D769A0F54792,川味苑,长安区中山路126号凯嘉大厦对面,114.68872,38.26875,311,四川菜,0,0,餐饮,中式餐饮,2,0.0
208,B2094757D769A0F54893,东北家常菜,长安区中山路126号凯嘉大厦对面,114.68872,38.26875,311,东北菜,0,0,餐饮,中式餐饮,2,0.0
209,B2094757D76AA3F94292,吉祥馄饨 中山路店,桥东区中山路与平安大街交叉口向北50米路西(市一中对面),114.68872,38.26875,311,快餐厅,0,0,餐饮,小吃快餐,2,0.0
210,B2094757D76AA3F4419E,西安羊肉泡馍,长安区中山路(近苏宁电器),114.68872,38.26875,311,快餐厅,0,0,餐饮,小吃快餐,2,0.0
211,B2094757D76AA3F5449E,嘎巴脆冰糖葫芦,长安区中山路(近青园),114.68872,38.26875,311,快餐厅,0,0,餐饮,小吃快餐,2,0.0
212,B2094757D76AA2FC489D,沙家帮小食店,长安区中山路(煤机街口),114.68872,38.26875,311,快餐厅,0,0,餐饮,小吃快餐,2,0.0
213,B2094757D76AA2F9419C,鑫福家常菜,桥东区中山路(休门街口),114.68872,38.26875,311,河北菜,0,0,餐饮,中式餐饮,2,0.0
214,B2094757D76AA2FA439B,西安老马家羊肉泡馍,桥东区中山路(近煤机街),114.68872,38.26875,311,快餐厅,0,0,餐饮,小吃快餐,2,0.0
215,B2094757D76AA7FC4993,肯德基 益中店,长安区中山东路188号北国商城益中百货1楼,114.68872,38.26875,311,快餐厅,1,0,餐饮,小吃快餐,2,0.0
216,B2094757D76AABF4469F,热河食府,中山路626号(近时光街),114.68872,38.26875,311,中餐厅,0,0,餐饮,中式餐饮,2,0.0
217,B2094757D76BA2FB429A,芒果树港式甜品,长安区中山路(范光胡同口),114.68872,38.26875,311,甜品店,0,0,餐饮,甜点饮品,2,0.0
218,B2094757D76BA2FB439E,吾饮良品 中山路店,长安区中山路范光胡同12中门口(东尚对面),114.68872,38.26875,311,快餐厅,0,0,餐饮,小吃快餐,2,0.0
219,B2094757D76BA6FD4298,鲜果时间,中山路269号东尚广场2楼,114.68872,38.26875,311,特色／地方风味餐厅,0,0,餐饮,中式餐饮,2,0.0
220,B2094757D76BA5FF4598,和味拉面 北国店,桥东区中山路北国商城B1层时光隧道(近建设北大街),114.68872,38.26875,311,日本料理,0,0,餐饮,国际餐饮,2,0.0
221,B2094757D76BAAFA4693,鸿福火锅,长安区中山路126号凯嘉大厦底商,114.68872,38.26875,311,火锅店,0,0,餐饮,中式餐饮,2,0.0
222,B2094757D76BAAFA479E,阿玛祖,桥东区中山路南花园步行街,114.68872,38.26875,311,韩国料理,0,0,餐饮,国际餐饮,2,0.0
223,B2094757D76BAAFB439B,麻辣诱惑,长安区中山路(育才街口),114.68872,38.26875,311,四川菜,1,0,餐饮,中式餐饮,2,0.0
224,B2094757D76BAAF44998,纯紫薯饼,桥东区中山路(煤机街口),114.68872,38.26875,311,快餐厅,0,0,餐饮,小吃快餐,2,0.0
225,B2094757D765A1F4489A,汤正发快餐,长安区中山路126号凯嘉大厦底商,114.68872,38.26875,311,快餐厅,0,0,餐饮,小吃快餐,2,0.0
226,B2094757D765A1F54098,老北京铜锅,长安区中山路(民心河口),114.68872,38.26875,311,火锅店,0,0,餐饮,中式餐饮,2,0.0
227,B2094757D765A1F54293,九和西点,长安区中山路(近东尚),114.68872,38.26875,311,甜品店,0,0,餐饮,甜点饮品,2,0.0
228,B2094757D765A0FC489E,土家酱香饼,长安区中山路(近天元商城),114.68872,38.26875,311,快餐厅,0,0,餐饮,小吃快餐,2,0.0
229,B2094757D765A0FD4293,重庆成明火锅城,桥东区中山路(南小街口),114.68872,38.26875,311,火锅店,0,0,餐饮,中式餐饮,2,0.0
230,B2094757D765A0FE439F,菜根香川菜坊,长安区中山路东尚底商,114.68872,38.26875,311,四川菜,0,0,餐饮,中式餐饮,2,0.0
231,B2094757D765A5F9489A,珍满福兰州牛肉拉面 谈固店,中山路532号保龙仓家乐福内,114.6887231,38.2687559,311,特色／地方风味餐厅,0,0,餐饮,中式餐饮,2,0.0
232,B2094757D46CABFA499F,老酒川菜坊,长安区中山路(近休门街),114.68872,38.26875,311,四川菜,0,0,餐饮,中式餐饮,2,0.0
233,B2094753D36EA3F54698,一茶一坐(先天下店),中山路先天下3楼,114.68872,38.26875,311,茶艺馆,0,0,餐饮,甜点饮品,2,0.0
234,B2094751DB6EA6F8439C,三角烧(中山路店),桥东区中山路石家庄饭店,114.68872,38.26875,311,甜品店,0,0,餐饮,甜点饮品,2,0.0
235,B2094751DB6EA5FD479F,加洲牛肉面,桥西区中山路火车站西广场,114.68872,38.26875,311,快餐厅,1,0,餐饮,小吃快餐,2,0.0
236,B2094751DB6EAAFA469E,山楂树,长安区中山路(近省博物馆),114.68872,38.26875,311,餐饮美食,0,0,餐饮,其它,2,0.0
237,B2094751DB68A0FB409F,川味饭店,长安区中山路(平安北大街口),114.68872,38.26875,311,四川菜,0,0,餐饮,中式餐饮,2,0.0
238,B2094751DB69A3FA4193,川南菜馆,长安区中山路326号先天下2楼(近育才街),114.68872,38.26875,311,四川菜,0,0,餐饮,中式餐饮,2,0.0
239,B2094751DB6AA0FF4998,天天乐快餐,近郊正定县正无路(近诸福屯派出所),114.6542,38.15358,311,快餐厅,0,0,餐饮,小吃快餐,0,5125.73293138326
240,B2094751DB6AA4F54193,九禾西点,裕华区中山路(建华大街口西侧),114.68872,38.26875,311,甜品店,0,0,餐饮,甜点饮品,2,0.0
241,B2094751DB6BABF9469B,塞纳左岸咖啡,近郊正定县正定国际机场1楼大厅,114.6995,38.27807,311,咖啡厅,0,0,餐饮,甜点饮品,2,373.76281078173866
242,B2094751DB6BAAF5499A,福建沙县小吃,长安区中山路(育才街口),114.68872,38.26875,311,快餐厅,0,0,餐饮,小吃快餐,2,0.0
243,B2094751DB65A2F5499F,驴肉火烧,长安区中山路(建华大街西侧),114.68872,38.26875,311,快餐厅,0,0,餐饮,小吃快餐,2,0.0
244,B2094751DB6CABFB469F,巴味轩,桥东区中山路美生堂(南小街口),114.68872,38.26875,311,火锅店,0,0,餐饮,中式餐饮,2,0.0
245,B2094751D268A5F54493,必胜客(新北国店),河北省石家庄市中山路188号北国电器城,114.6887231,38.2687559,311,快餐厅,0,0,餐饮,小吃快餐,2,0.0
246,B2094751D268A5F5459A,必胜客(人民店),中山路139号人民商场1层,114.6887231,38.2687559,311,快餐厅,0,0,餐饮,小吃快餐,2,0.0
247,B2094656D368A0FF499E,正蓝旗蒙古营饭店,,114.69566,38.27619,311,综合酒楼,3,0,餐饮,中式餐饮,2,395.04031722325146
248,B2094757D56FA2FA4193,东星饭店,中国河北省正定县G107,114.63051568,38.22821072,311,中餐厅,6,0,餐饮,中式餐饮,2,5882.914300601687
249,B2094757D76AA2FF479B,爱多芙台湾甜品,中山路306号石家庄饭店正门东侧(博物馆西侧),114.68872,38.26875,311,糕饼店,16,10,餐饮,甜点饮品,2,0.0
250,B2094656D365A1F8419D,文有饭店,,114.68561,38.26246,311,中餐厅,4,1,餐饮,中式餐饮,2,373.112099602362
251,B2094757D56FA2FA4799,底家烧烤涮园,中国河北省藁城市S204,114.74031982,38.16894477,311,火锅店,17,4,餐饮,中式餐饮,0,4275.241272720778
252,B2094757D56FA4FA4093,肖华饭庄,中国河北省藁城市S204,114.74285753,38.11275364,311,中餐厅,10,2,餐饮,中式餐饮,0,529.3568383112754
253,B2094450D66BA3F54599,机场路美味斋饭店,河北省 石家庄市 机场路,114.6852,38.2658,311,餐饮美食,1,0,餐饮,其它,2,373.112099602362
254,B2094457D16EA1F9429D,哈根达斯(乐汇城店),河北省 石家庄市 桥东区中山西路11号,114.5956,38.15237,311,餐饮美食,1,1,餐饮,其它,0,1114.9202040035102
255,B2094450D06EA1FC449D,虽然但是,河北省 石家庄市 石家庄,114.81688,38.21272,311,餐饮美食,1,1,餐饮,其它,1,1086.8328112967647
256,B2094457D169A0FD4193,垃圾站,河北省 石家庄市 北京市,114.87173,38.21391,311,餐饮美食,1,1,餐饮,其它,1,3832.54535884737
257,B2094454D169AAFD4892,爱檳果儿,河北省 石家庄市 爱迸发的源泉,114.82833,38.2089,311,餐饮美食,0,0,餐饮,其它,1,1086.8328112967647
258,B209475CD06DA5FA419A,一米阳光休闲会所,无极县无极路(光明街口南侧路西),114.97366,38.17744,311,咖啡厅,2,1,餐饮,甜点饮品,1,0.0
259,B209475CD36BA2FA449B,慕尼黑烤肉,无极县光明街(无极路口南侧路东),114.97366,38.17744,311,自助,0,0,餐饮,小吃快餐,1,0.0
260,B2094752D36AA6FB4099,川福楼,近郊正义街,114.9692,38.17898,311,四川菜,0,0,餐饮,中式餐饮,1,0.0
261,B2094751DB69A3F5439B,无极驴肉烧饼,近郊无极县无极路东首(外环口),115.0068,38.17555,311,快餐厅,0,0,餐饮,小吃快餐,1,1222.6058280388768
262,B2094751DB64A2FA4499,云南过桥米线,近郊无极县幸福街(花园路口北侧),114.9723,38.17879,311,快餐厅,0,0,餐饮,小吃快餐,1,152.92587737465848
263,B2094757D56FA2F94199,巴儒火锅,近郊无极县正义街北侧(近花园街),114.96175,38.1793,311,河北菜,0,0,餐饮,中式餐饮,1,92.90615376552863
264,B2094757D768A0FD449C,云涛饭店,近郊无极县东关村(汽车站对面),114.99289,38.1767,311,河北菜,0,0,餐饮,中式餐饮,1,787.5544491078192
265,B2094757D76AA0F5429C,川福楼香锅店,近郊正义街(近光明小区),114.9692,38.17898,311,火锅店,0,0,餐饮,中式餐饮,1,0.0
266,B2094757D76BA6FD4793,友格福如特 中山西路店,桥西区中山西路202号人民商场6楼,114.97397,38.1792,311,甜品店,0,0,餐饮,甜点饮品,1,70.94027843646144
267,B2094757D765A0FE4399,侯氏涮园 正义街店,近郊无极县正义街,114.9692,38.17898,311,火锅店,0,0,餐饮,中式餐饮,1,0.0
268,B2094656D368A0F8499C,好望角生日蛋糕屋,,114.97478,38.17916,311,糕饼店,27,8,餐饮,甜点饮品,1,70.94027843646144
269,B2094656D368A0F8439F,兰州正宗牛肉拉面(无极路),,114.98368,38.17758,311,中餐厅,25,0,餐饮,中式餐饮,1,23.600754105034746
270,B2094656D368A0F9429B,永昌多味水饺,,114.97357,38.18038,311,特色／地方风味餐厅,3,2,餐饮,中式餐饮,1,135.78836612542378
271,B2094656D368A0F84399,小香驴火锅,,114.98395,38.17758,311,火锅店,0,0,餐饮,中式餐饮,1,23.600754105034746
272,B2094656D368A0F84392,建华快餐,无极东路79,114.98156,38.17754,311,中餐厅,0,0,餐饮,中式餐饮,1,41.97164828954232
273,B2094656D368A0F84393,万事利生日蛋糕,,114.98108,38.17755,311,糕饼店,0,0,餐饮,甜点饮品,1,41.97164828954232
274,B2094656D368A0F8459F,金盛快餐厅,,114.97875,38.17959,311,中餐厅,0,0,餐饮,中式餐饮,1,220.17289478853417
275,B2094455DA6AA7FD4998,无极泰都酒店,河北省 石家庄市 石家庄市无极县建设路,114.96262,38.17978,311,餐饮美食,1,1,餐饮,其它,1,92.90615376552863
276,B2094454D168A5FA4392,德克士,河北省 石家庄市 北京,114.97397,38.17727,311,餐饮美食,0,0,餐饮,其它,1,33.0392091007149
277,B2094457D06AA3FA479C,j,河北省 石家庄市 感觉我,115.04505,38.20836,311,餐饮美食,0,0,餐饮,其它,1,4948.162659934648
278,B2094457D06EA6F8439D,大喜龙虾无极店,河北省 石家庄市 绿荫广场西五十米,114.97609,38.1806,311,餐饮美食,0,0,餐饮,其它,1,196.8495494148059
279,B2094656D368A0F8469E,七汲羊肉馆,,114.97873,38.18157,311,中餐厅,0,0,餐饮,中式餐饮,1,46.77542390992392
280,B2094656D368A0F8469F,郭庄快餐,,114.9787,38.18199,311,中餐厅,0,0,餐饮,中式餐饮,1,46.77542390992392
281,B2094656D368A0F8469C,中义饭店,,114.97866,38.18408,311,中餐厅,0,0,餐饮,中式餐饮,1,232.42369291006588
282,B2094450D069A4FE499B,蜜菓,河北省 石家庄市 无极县光明街,114.97971,38.17715,311,餐饮美食,1,1,餐饮,其它,1,90.60942796491169
283,B2094457D66EABFE419B,蜜菓,河北省 石家庄市 河北省无极县光明街,114.97912,38.17648,311,餐饮美食,11,11,餐饮,其它,1,90.60942796491169
284,B2094454D065A6F54592,是花自然香,河北省 石家庄市 石家庄,115.177047,38.21989,311,餐饮美食,0,0,餐饮,其它,1,4551.688719590781
285,B209475CD068ABFF4693,幸福小馆正宗牛肉板面,深泽县西小街42号(近乐园网吧),115.19941,38.18292,311,特色／地方风味餐厅,0,0,餐饮,中式餐饮,1,95.66357982014426
286,B209475CD06DA4FA409D,西河肉糕坊,深泽县建设路(近深泽中学),115.19944,38.18206,311,特色／地方风味餐厅,0,0,餐饮,中式餐饮,1,95.66357982014426
287,B2094454D16AAAF5479E,喜利来蛋糕,河北省 石家庄市 深泽县向阳街,115.20386,38.18464,311,餐饮美食,0,0,餐饮,其它,1,0.0
288,B2094454D16AAAF5489A,喜利来蛋糕,河北省 石家庄市 深泽县向阳街,115.20386,38.18464,311,餐饮美食,1,1,餐饮,其它,1,0.0
289,B2094751DB68A4F94498,市政府中晚餐外卖,长安区市政府西口(近石家庄第四医院),115.30932,38.18668,311,快餐厅,0,0,餐饮,小吃快餐,1,9220.047805637525
290,B2094757D46AA6FC499B,湖南会馆,近郊平山县西柏坡(近金辉时代城),113.940882,38.356215,311,湖南菜,0,0,餐饮,中式餐饮,2,0.0
291,B2094757D764A3FC4999,西柏坡农家饭店,近郊平山县西柏坡(近中共中央旧址),113.940882,38.356215,311,河北菜,0,0,餐饮,中式餐饮,2,0.0
292,B2094757D765A5F8419C,秘宗百位屋,近郊平山县西柏坡,113.940882,38.356215,311,河北菜,0,0,餐饮,中式餐饮,2,0.0
293,B2094656D365A6FB469E,天源饭店,,114.02372,38.32006,311,中餐厅,0,0,餐饮,中式餐饮,2,269.7740130380658
294,B2094656D365A4FD439C,西柏坡旅游餐厅,,113.96598,38.37173,311,中餐厅,0,0,餐饮,中式餐饮,2,2786.4831515892583
295,B2094656D365A4F94692,福源饭店,,114.02066,38.31971,311,中餐厅,0,0,餐饮,中式餐饮,2,269.7740130380658
296,B2094656D365A1F54493,西柏坡纪念馆餐厅,,113.94264,38.34183,311,中餐厅,6,3,餐饮,中式餐饮,2,98.47790462463487
297,B2094656D365A6F4419C,柏坡湖餐厅,,113.9399,38.33992,311,中餐厅,3,2,餐饮,中式餐饮,2,13.597496302574712
298,B2094656D365A0F5439C,红旅酒楼,,113.94135,38.33868,311,综合酒楼,0,0,餐饮,中式餐饮,2,187.0942415133265
299,B2094656D365A7F94399,红都酒家,,113.93993,38.34004,311,中餐厅,0,0,餐饮,中式餐饮,2,13.597496302574712
300,B2094656D365A7F44592,红色食府,,113.93793,38.34685,311,中餐厅,2,1,餐饮,中式餐饮,2,693.0424473142358
301,B209475CD06DA5FA409C,八路军餐馆,平山县207国道,113.9234,38.32043,311,快餐厅,0,0,餐饮,小吃快餐,2,2563.1260897624484
302,B209475CD36BA2FA4292,红太阳餐厅,平山县西柏坡温泉城(近温塘镇政府),113.94374,38.34203,311,中餐厅,0,0,餐饮,中式餐饮,2,98.47790462463487
303,B209475CD36FA3FF419D,温泉花溪宾馆餐厅,平山县温塘镇中心广场(近西柏坡),114.00049,38.26473,311,河北菜,1,1,餐饮,中式餐饮,2,385.7159064422861
304,B2094752D26DAAFD409B,平山寓和园私家盛宴饭店,近郊平山县城县标西北斜街88号(老四合院)(鸿宇超市东关店),114.21706,38.2573,311,餐饮美食,0,0,餐饮,其它,2,118.83903810497284
305,B2094757D56FA2FA4599,老婆儿饺子,中国河北省平山县S301,114.2183214,38.2568986,311,中餐厅,0,0,餐饮,中式餐饮,2,118.83903810497284
306,B2094757D76BA7F5499A,西柏坡纪念馆餐厅,平山县,114.202636,38.255718,311,中餐厅,2,1,餐饮,中式餐饮,2,237.9797138865003
307,B2094454D16AA3FC429E,蝴蝶的泪痕,河北省 石家庄市 天津市塘沽区,114.24133,38.3303,311,餐饮美食,0,0,餐饮,其它,2,0.0
308,B2094454D16AA3FC439D,蝴蝶的泪痕,河北省 石家庄市 河北省石家庄市,114.24133,38.3303,311,餐饮美食,0,0,餐饮,其它,2,0.0
309,B209475CD06FA5FF419D,河渠羊肉馆,平山县河渠村(河渠少年军校西侧路北),114.26458,38.33436,311,河北菜,0,0,餐饮,中式餐饮,2,2077.6057298256455
310,B2094751DB65AAFE4898,老张烧饼,近郊灵寿县城关镇就百货大楼门口,114.37662,38.30357,311,快餐厅,0,0,餐饮,小吃快餐,2,357.4959760221739
311,B2094757D76AA6FF4993,正宗牛肉板面,近郊灵寿县汽车站附近(近中山宾馆),114.38853,38.30812,311,快餐厅,0,0,餐饮,小吃快餐,2,907.4520899335146
312,B2094757D765A5F8469B,五岳寨喜客之家,灵寿县五岳寨景区内,114.37834,38.306488,311,中餐厅,1,1,餐饮,中式餐饮,2,357.4959760221739
313,B2094656D364AAFC409F,小肥羊火锅(北环路店),灵寿县北环路地税局东邻,114.37794,38.31649,311,火锅店,24,7,餐饮,中式餐饮,2,421.9343816594195
314,B2094757D56FA7FB4298,腾达酒楼,中国河北省正定县S201,114.45466227,38.24827718,311,综合酒楼,4,1,餐饮,中式餐饮,2,7700.999183676856
315,B209475CD069A2F84298,天顺府,灵寿县北环西路12号(近中天商厦),114.3733,38.31542,311,河北菜,0,0,餐饮,中式餐饮,2,421.9343816594195
316,B209475CD06EA5FF4398,王栓饭店,正定县009县道(近南楼乡工业区),114.55126,38.26579,311,河北菜,0,0,餐饮,中式餐饮,2,5064.532275842347
317,B209475CD068A5FE459B,海里捞欢乐火锅,正定县承德街(近三才家具市场),114.56376,38.22099,311,火锅店,0,0,餐饮,中式餐饮,2,0.0
318,B209475CD36FA7FA4099,天池饭店,正定县(铁道西交警队路口西侧路北),114.56376,38.22099,311,东北菜,0,0,餐饮,中式餐饮,2,0.0
319,B2094751D36EABFD429E,王家大院,近郊正定县西门里金太阳公寓院内(老西门东侧),114.5638,38.22099,311,河北菜,0,0,餐饮,中式餐饮,2,3.494324097414292
320,B2094751D36AA3F4499F,大草原烤羊腿烧烤城,近郊正定县承德小区(中银小区对面),114.56376,38.22099,311,烧烤,0,0,餐饮,中式餐饮,2,0.0
321,B2094751D265A5F84092,马家烧鸡,近郊正定,114.56376,38.22099,311,快餐厅,0,0,餐饮,小吃快餐,2,0.0
322,B2094457D169A5FD4692,皮皮。,河北省 石家庄市 路@1号,114.5583,38.311,311,餐饮美食,1,1,餐饮,其它,2,0.0
323,B2094457D169A5FE419B,家。,河北省 石家庄市 正行路1号。,114.5583,38.311,311,餐饮美食,3,2,餐饮,其它,2,0.0
324,B2094750DB6EA4FE4098,藁城东桥寨,碧云阁饭店,114.768653,38.287376,311,餐饮美食,1,0,餐饮,其它,2,5371.812294964954
325,B2094656D365A2F44492,客来香饭庄,,114.13555,38.37676,311,中餐厅,4,1,餐饮,中式餐饮,2,79.47797281961896
326,B2094450D76DABF4409B,石家庄,河北省 石家庄市 空间,114.1288,38.38097,311,餐饮美食,1,0,餐饮,其它,2,751.8933980723486
327,B2094656D365A0FA459F,旺角餐馆,,114.1359,38.3761,311,中餐厅,0,0,餐饮,中式餐饮,2,79.47797281961896
328,B2094454D164A5FC4092,地球村,河北省 石家庄市 某地,114.51642,38.39911,311,餐饮美食,0,0,餐饮,其它,2,4598.924202972046
329,B209475CD068A2FC439E,香辣虾,香港路(近小公园),114.56439,38.43141,311,四川菜,0,0,餐饮,中式餐饮,2,696.3061459012656
330,B209475CD06EA5FF409F,韩石自助烧烤城,新乐市农贸市场附近,114.54807,38.43221,311,韩国料理,0,0,餐饮,国际餐饮,2,463.5045487745018
331,B209475CD369A0FA419B,巴儒,正义街北头,114.553158,38.4334308,311,火锅店,0,0,餐饮,中式餐饮,2,244.450364713777
332,B2094753D76AA7F8499E,侯氏涮园(行唐店),石家庄市行唐县龙州大街东头(星辰花园对面),114.568567,38.442638,311,火锅店,0,0,餐饮,中式餐饮,2,697.01739883013
333,B2094751DB6BA5FB4292,巴蜀人家,近郊行唐县香港路(玉城大街口),114.56372,38.43765,311,四川菜,0,0,餐饮,中式餐饮,2,0.0
334,B2094751DB64A1F84998,津津乐,近郊行唐县衡阳大街(近行唐县中医院),114.55563,38.43239,311,快餐厅,0,0,餐饮,小吃快餐,2,134.90490471507823
335,B2094751DB64A1F9419E,同仁饭店,近郊行唐县东街(近庄头),114.55751,38.43596,311,河北菜,0,0,餐饮,中式餐饮,2,185.58394118916084
336,B2094751DB64A1FA409E,津津乐烤鸭店,近郊行唐县香港路(龙州大街东北角),114.56372,38.43765,311,烧烤,0,0,餐饮,中式餐饮,2,0.0
337,B2094751DB64A0FB4893,十分鲜快餐,近郊行唐县永昌路(行唐县公安局对面),114.55921,38.44261,311,快餐厅,0,0,餐饮,小吃快餐,2,0.0
338,B2094751DB64A0F4419B,董记煎饼,近郊行唐县永昌路(行唐中学对面),114.55921,38.44261,311,快餐厅,0,0,餐饮,小吃快餐,2,0.0
339,B2094751DB64AAF9439D,老国白吉馍夹肉,近郊行唐县幸福南路(龙泉中学对面),114.55599,38.43357,311,快餐厅,0,0,餐饮,小吃快餐,2,0.0
340,B2094751DB64AAF9499E,哑巴凉皮,近郊行唐县幸福南路(龙泉中学北侧),114.55599,38.43357,311,快餐厅,0,0,餐饮,小吃快餐,2,0.0
341,B2094757D16FA6F8429D,迪拜机场星巴克,迪拜机场,114.670850597,38.3557321043,311,咖啡厅,273,117,餐饮,甜点饮品,2,711.0314091655081
342,B2094757D768A6FD439A,幸福路街边炒鸡块,桥东区幸福路中段偏南(近胜利北大街),114.55564,38.43676,311,快餐厅,52,28,餐饮,小吃快餐,2,185.58394118916084
343,B2094450D76DAAF9469A,行唐县,河北省 石家庄市 新开路满口香炒鸡摊,114.54983,38.44011,311,餐饮美食,0,0,餐饮,其它,2,366.3852699715513
344,B2094450D665A1F94798,张家排骨馆,河北省 石家庄市 行唐县章武路,114.54567,38.4406,311,餐饮美食,0,0,餐饮,其它,2,366.3852699715513
345,B2094457D168AAFD4298,帆船酒店,河北省 石家庄市 迪拜,114.55639,38.43069,311,餐饮美食,0,0,餐饮,其它,2,200.28790390247497
346,B2094757D76AA6FA4493,肯德基 新乐市店,近郊新乐市鲜虞街(新开路口),114.69127,38.34953,311,快餐厅,0,0,餐饮,小吃快餐,2,320.62585874110874
347,B2094757D56FAAFF4999,聚湘楼,中国河北省新乐市G107,114.6924349,38.3372366,311,中餐厅,3,1,餐饮,中式餐饮,2,701.5880832457552
348,B2094457D06FA5FB499A,深海里的海洋,河北省 石家庄市 地球村幸福街,114.69186,38.34353,311,餐饮美食,0,0,餐饮,其它,2,54.44328183852044
349,B2094456D06BA1F9469F,德克士,河北省 石家庄市 石家庄新乐市,114.69145,38.34665,311,餐饮美食,1,0,餐饮,其它,2,30.07324990988863
350,B2094454D168A5FA4498,碰碰凉,河北省 石家庄市 新乐市,114.68213,38.3486,311,餐饮美食,0,0,餐饮,其它,2,72.32403436908228
351,B2094450D16DA3FA489F,伊诺手工冰淇淋,河北省 石家庄市 新开路,114.6863,38.34622,311,餐饮美食,0,0,餐饮,其它,2,124.58078032053146
352,B2094454D26DA7FF409D,河北省新乐市韩石城自助餐厅,河北省新乐市鲜虞街112号,114.697105,38.352424,311,餐饮美食,2,2,餐饮,其它,2,602.0418346422492
353,B209475CD068A2F9459E,大胖火锅,新乐市鲜虞街,114.69143,38.34638,311,火锅店,0,0,餐饮,中式餐饮,2,30.07324990988863
354,B209475CD068ABFF479D,河间正宗驴肉火烧,新乐市长寿路(政府对面),114.68489,38.3464,311,特色／地方风味餐厅,0,0,餐饮,中式餐饮,2,124.58078032053146
355,B209475CD068AAFD4998,城关饭店,新乐市承安铺(近沙河大桥),114.7862,38.39871,311,河北菜,0,0,餐饮,中式餐饮,2,976.3571828598759
356,B209475CD069A4F4499F,比萨甜筒,礼堂街365对面(近碰碰凉),114.68216,38.34795,311,特色／地方风味餐厅,0,0,餐饮,中式餐饮,2,72.32403436908228
357,B209475CD36FA3FA499A,兰州穆斯林大盘鸡,新华区派出所附近,114.69245,38.34369,311,中餐厅,0,0,餐饮,中式餐饮,2,54.44328183852044
358,B2094457D16CA1FF4898,丽江庭院,河北省 石家庄市 西单,114.68392,38.35636,311,餐饮美食,1,1,餐饮,其它,2,390.1575096341107
359,B2094457D064A2FE469E,。。。,河北省 石家庄市 112,114.79554,38.40356,311,餐饮美食,0,0,餐饮,其它,2,976.3571828598759
360,B2094752D364A1FC4398,新乐半斤半牛肉面,近郊新乐市新乐县医院对面,114.6758,38.34342,311,快餐厅,0,0,餐饮,小吃快餐,2,694.8594344031923
361,B2094751DB6DAAF9469E,苏氏牛肉面(新乐市店),近郊新乐市,114.75569,38.37183,311,快餐厅,0,0,餐饮,小吃快餐,2,0.0
362,B2094751DB68A1FF409A,京来顺,近郊新乐市,114.75569,38.37183,311,河北菜,0,0,餐饮,中式餐饮,2,0.0
363,B2094751DB68A1F9439E,渝香片片鱼,近郊新乐市,114.75569,38.37183,311,火锅店,0,0,餐饮,中式餐饮,2,0.0
364,B2094751DB64A5F8479D,新乐市南环路,新乐市南环路交警队对过,114.66879,38.33639,311,西餐厅,1,1,餐饮,国际餐饮,2,992.390324987402
365,B2094751DB65A3F8479D,马凹鸡汁豆腐干,近郊行唐县幸福路(近龙州大街),114.67883,38.35705,311,快餐厅,0,0,餐饮,小吃快餐,2,450.40500032614017
366,B2094751DB6DA6FC4992,红豆,近郊新乐市,114.75569,38.37183,311,火锅店,0,0,餐饮,中式餐饮,2,0.0
367,B2094751D36AABFB499D,云南蒙自过桥米线,近郊新乐市新华路(新乐宾馆东侧),114.68533,38.35303,311,快餐厅,0,0,餐饮,小吃快餐,2,390.1575096341107
368,B2094757D46BA6FA429D,烧饼,近郊新兴路(近旧酱油厂),114.67862,38.34945,311,快餐厅,0,0,餐饮,小吃快餐,2,320.347004743002
369,B2094757D76AA2FE4493,小肥羊 新开路店,近郊新乐市新开路(近爱时尚购物广场),114.72576,38.32203,311,火锅店,0,0,餐饮,中式餐饮,2,1587.8672650493463
370,B2094757D76AA7FD4099,京来顺,新乐市,114.683766,38.343296,311,中餐厅,0,0,餐饮,中式餐饮,2,358.7985508580461
371,B2094757D76BA1FE449D,清真楼,近郊新乐,114.75569,38.37183,311,清真餐馆,0,0,餐饮,中式餐饮,2,0.0
372,B2094656D368A0FF4599,交通饭店,石正路378号,114.72458,38.33628,311,中餐厅,0,0,餐饮,中式餐饮,2,1061.4868693327805
373,B2094450D76DA0F54499,哈哈哈haha,河北省 石家庄市 哈哈区哈哈1号,114.71625,38.34324,311,餐饮美食,1,1,餐饮,其它,2,1061.4868693327805
374,B2094757D76AA2F8469D,宋村小酒馆,近郊新乐市杜固镇宋村888号,114.85503,38.4049,311,河北菜,37,8,餐饮,中式餐饮,2,5185.958909453519
375,B209475CD36BA2FE419A,勇刚饭店,河合村,114.609821,38.506573,311,河北菜,0,0,餐饮,中式餐饮,2,3250.0199108268694
376,B2094751DB65A3F8439C,炸鸡排,近郊行唐县永昌路(东街口),114.55921,38.44261,311,快餐厅,0,0,餐饮,小吃快餐,2,0.0
377,B2094457D06DABFA489B,北京,河北省 石家庄市 三里屯,114.57378,38.51425,311,餐饮美食,0,0,餐饮,其它,2,3250.0199108268694
378,B209475CD36AA5FC4992,米莎贝尔 槐泉路店,赞皇县槐泉路街心花园西侧,114.3850631,37.6654446,311,甜品店,0,0,餐饮,甜点饮品,3,266.4015859633153
379,B2094751DB69A7FA499E,一品茶庄,近郊赞皇县盛贸东路旭东花园西门附近,114.40472,37.6627,311,餐饮美食,0,0,餐饮,其它,3,24.408189500324728
380,B2094656D364A6FE459B,小蜜蜂赞皇分店,,114.40185,37.66491,311,综合酒楼,19,1,餐饮,中式餐饮,3,41.184509331053995
381,B2094656D364A6FA449E,大清花饺子赞皇分店,,114.40457,37.66429,311,特色／地方风味餐厅,11,2,餐饮,中式餐饮,3,61.06735247456729
382,B2094656D364A6F9479D,东环饭店,,114.39519,37.65832,311,中餐厅,6,1,餐饮,中式餐饮,3,194.04817071990834
383,B2094656D364A6FA4898,香得福美食苑,,114.4049,37.66039,311,中餐厅,2,1,餐饮,中式餐饮,3,100.11027062280675
384,B2094656D364A6FE4792,金源饭店,,114.39034,37.66521,311,中餐厅,1,0,餐饮,中式餐饮,3,62.22909697889238
385,B2094656D364A6F9449A,天兴饭店,,114.39126,37.66476,311,中餐厅,1,0,餐饮,中式餐饮,3,5.397098537872593
386,B2094656D364A6F9499A,天然居,,114.39563,37.66003,311,中餐厅,18,9,餐饮,中式餐饮,3,43.3749546467356
387,B2094656D364A6FA459A,梨园饭店,,114.40455,37.66332,311,中餐厅,0,0,餐饮,中式餐饮,3,16.67923899614521
388,B2094656D364A6F84693,九六发饭店,,114.38976,37.66489,311,中餐厅,0,0,餐饮,中式餐饮,3,62.22909697889238
389,B2094656D364A6F8489E,新开饭店,,114.38885,37.66421,311,中餐厅,0,0,餐饮,中式餐饮,3,110.15119255600838
390,B2094656D364A6F94393,秀云饭店,,114.3912,37.66477,311,中餐厅,0,0,餐饮,中式餐饮,3,5.397098537872593
391,B2094656D364A6F94699,昌宏快餐,,114.39475,37.6624,311,中餐厅,0,0,餐饮,中式餐饮,3,132.61001729248287
392,B2094656D364A6F94992,赞宏涮锅,,114.39564,37.66042,311,火锅店,0,0,餐饮,中式餐饮,3,43.3749546467356
393,B2094656D364A6FA409A,腾龙阁饭庄,,114.39563,37.66098,311,中餐厅,0,0,餐饮,中式餐饮,3,62.27538054543036
394,B2094656D364A6FA409B,华鑫食府,,114.39559,37.66339,311,中餐厅,0,0,餐饮,中式餐饮,3,67.8289052533011
395,B2094656D364A6FA409E,老秦家涮锅店,,114.39559,37.664,311,火锅店,0,0,餐饮,中式餐饮,3,67.8289052533011
396,B2094656D364A6FA409D,占强餐馆,,114.39582,37.66461,311,中餐厅,0,0,餐饮,中式餐饮,3,70.78577865862246
397,B2094656D364A6FA419C,羊肉滋补烩面,,114.39823,37.66458,311,中餐厅,0,0,餐饮,中式餐饮,3,55.31178992149174
398,B2094656D364A6FA4298,口福酒家,,114.40009,37.66456,311,中餐厅,0,0,餐饮,中式餐饮,3,117.95484457078933
399,B2094656D364A6FA4292,金福来饭店,,114.40174,37.66455,311,中餐厅,0,0,餐饮,中式餐饮,3,27.286850371209596
400,B2094656D364A6FA4293,山西清香源餐馆,,114.40321,37.66452,311,中餐厅,0,0,餐饮,中式餐饮,3,13.203320032584527
401,B2094656D364A6FA439A,四季火锅,,114.40336,37.66452,311,火锅店,0,0,餐饮,中式餐饮,3,13.203320032584527
402,B2094656D364A6FA439F,明珠快餐,,114.40389,37.66452,311,中餐厅,0,0,餐饮,中式餐饮,3,4.4011066767820335
403,B2094656D364A6FA439C,月亮湾海鲜酒楼,,114.40394,37.66452,311,海鲜酒楼,0,0,餐饮,中式餐饮,3,4.4011066767820335
404,B2094656D364A6FA459B,刘大烧烤东环店,,114.40455,37.66317,311,特色／地方风味餐厅,0,0,餐饮,中式餐饮,3,16.67923899614521
405,B2094757D76AA7F94092,陕西油泼面,近郊高邑县顺城街(近南兴路),114.6152186,37.604642,311,河北菜,0,0,餐饮,中式餐饮,3,29.000238436471278
406,B2094656D365A5F44193,小肥羊火锅(南星路店),,114.6105,37.60752,311,火锅店,0,0,餐饮,中式餐饮,3,68.58310843060207
407,B2094656D364A6FB4498,鳝鱼面,,114.61,37.60644,311,中餐厅,0,0,餐饮,中式餐饮,3,127.91289782661113
408,B2094656D364A6FB459A,鹏程快餐,,114.61163,37.60737,311,中餐厅,0,0,餐饮,中式餐饮,3,60.13192057900725
409,B2094656D364A6FB4698,顺城阁美食苑,,114.61502,37.60485,311,中餐厅,0,0,餐饮,中式餐饮,3,29.000238436471278
410,B2094656D364A6F44293,金海港高邑分店,,114.6112,37.60779,311,综合酒楼,0,0,餐饮,中式餐饮,3,60.13192057900725
411,B2094656D364A6F4449A,溢香园酒家,,114.61183,37.61417,311,中餐厅,0,0,餐饮,中式餐饮,3,28.38289708143164
412,B2094656D364A6F4449F,府前酒家,,114.61364,37.61404,311,综合酒楼,0,0,餐饮,中式餐饮,3,131.71224145232085
413,B2094656D364A6F44598,银泉餐厅,,114.60652,37.61511,311,中餐厅,0,0,餐饮,中式餐饮,3,57.53114325323466
414,B2094656D364A6F44692,胖子根涮锅城,,114.59797,37.61645,311,火锅店,0,0,餐饮,中式餐饮,3,333.9290782085034
415,B2094656D364A6F4479D,得月楼,,114.60129,37.615,311,综合酒楼,0,0,餐饮,中式餐饮,3,266.5771172861608
416,B2094656D364A6F4499C,阳光家园餐厅,,114.60713,37.61454,311,中餐厅,0,0,餐饮,中式餐饮,3,45.045196048367906
417,B2094656D364A6F5409D,金港湾(新城大街),,114.61055,37.61217,311,中餐厅,0,0,餐饮,中式餐饮,3,39.551041447748815
418,B2094656D364A6F5419F,重庆酒楼,,114.61038,37.61133,311,四川菜,0,0,餐饮,中式餐饮,3,55.059229074811995
419,B2094656D364A6F5419D,汇鑫御食楼,,114.60841,37.60816,311,中餐厅,0,0,餐饮,中式餐饮,3,21.402898088433542
420,B2094656D364A6F54193,大胖涮锅NO.358,,114.60817,37.60819,311,火锅店,0,0,餐饮,中式餐饮,3,21.402898088433542
421,B2094656D364A6F5429A,小王牛肉面高邑分店,,114.60791,37.60821,311,中餐厅,0,0,餐饮,中式餐饮,3,23.010825598191264
422,B2094656D364A6F54298,平萍小吃,,114.60676,37.608,311,快餐厅,0,0,餐饮,小吃快餐,3,103.95879026134457
423,B2094656D364A6F5429C,杏花村酒家,,114.60905,37.60769,311,中餐厅,4,0,餐饮,中式餐饮,3,76.87426605412314
424,B2094656D364A6F5469B,吉星糕点房(凤中路),,114.60315,37.6048,311,糕饼店,0,0,餐饮,甜点饮品,3,100.10534374807675
425,B2094656D364A6F54799,旺角快餐,,114.59953,37.60551,311,中餐厅,0,0,餐饮,中式餐饮,3,81.31477339667421
426,B2094656D364A6F5479D,小城春饭馆,,114.59848,37.60584,311,中餐厅,0,0,餐饮,中式餐饮,3,19.41204255658783
427,B2094656D364A5FC419C,咀香园蛋糕世界(凤中路),,114.60605,37.60421,311,糕饼店,0,0,餐饮,甜点饮品,3,263.75966511371917
428,B2094656D364A5FC489F,顺兴楼,,114.60904,37.6016,311,中餐厅,0,0,餐饮,中式餐饮,3,15.79004183582229
429,B2094656D364A5FC489C,四川酒楼,,114.60907,37.60174,311,四川菜,0,0,餐饮,中式餐饮,3,15.79004183582229
430,B2094656D364A6FB439B,好利来蛋糕城,,114.61092,37.60417,311,糕饼店,20,5,餐饮,甜点饮品,3,265.1043968245824
431,B2094656D364A6F4449B,紫月亮咖啡屋,,114.61215,37.61414,311,咖啡厅,96,31,餐饮,甜点饮品,3,28.38289708143164
432,B2094656D364ABF5419E,红磨坊(北街村村民中心西),,114.61693,37.60708,311,中餐厅,15,2,餐饮,中式餐饮,3,55.95660870712768
433,B2094656D364A6F44899,新加坡香鸡店,,114.60462,37.61471,311,餐饮美食,18,4,餐饮,其它,3,28.53474336056059
434,B2094656D364A6FB459C,兴卫饭店,,114.61512,37.60648,311,中餐厅,2,0,餐饮,中式餐饮,3,119.27762121106494
435,B2094656D364A6F4489B,月亮湾,,114.6043,37.61475,311,综合酒楼,78,22,餐饮,中式餐饮,3,28.53474336056059
436,B2094656D364A6F5479C,广场饭馆,,114.5987,37.60583,311,中餐厅,21,5,餐饮,中式餐饮,3,19.41204255658783
437,B2094656D364A5FC4699,东方饭店,,114.60779,37.59843,311,中餐厅,3,1,餐饮,中式餐饮,3,272.87389584103033
438,B2094656D364A6FB469D,吉星糕点房(华夏灯具城南),,114.61492,37.60327,311,糕饼店,10,2,餐饮,甜点饮品,3,69.32116170605555
439,B2094656D364A6F4459F,春燕餐厅,,114.60556,37.6152,311,中餐厅,2,0,餐饮,中式餐饮,3,85.14756199503853
440,B2094656D364A6F44992,小太阳生日宴会厅,,114.60764,37.61451,311,中餐厅,2,0,餐饮,中式餐饮,3,36.95767127406432
441,B2094656D364A6F44993,天天鲜海鲜馆,,114.60769,37.61418,311,海鲜酒楼,3,1,餐饮,中式餐饮,3,36.95767127406432
442,B2094656D364A6F5419A,金紫红楼,,114.61047,37.61182,311,综合酒楼,7,4,餐饮,中式餐饮,3,39.551041447748815
443,B2094656D364A6F54993,张记正宗牛肉板面馆高邑第一分店,,114.60207,37.60452,311,中餐厅,3,1,餐饮,中式餐饮,3,100.10534374807675
444,B2094656D364A5FD4799,东凤餐厅,,114.63076,37.60319,311,中餐厅,11,4,餐饮,中式餐饮,3,1292.8264080279791
445,B2094656D364ABF5419D,缘聚德红焖羊肉(府前路),,114.60641,37.6146,311,中餐厅,3,1,餐饮,中式餐饮,3,57.53114325323466
446,B2094656D364ABF54192,大众饭店(新城大街),,114.60887,37.60073,311,中餐厅,7,1,餐饮,中式餐饮,3,97.89200096332311
447,B2094450D66AA4FC4999,爱吃鱼的美羊羊,河北省 石家庄市 不告诉你,114.59845,37.6076,311,餐饮美食,0,0,餐饮,其它,3,0.0
448,B2094450D66AA4FC4993,爱吃鱼的美羊羊,河北省 石家庄市 就不告诉你1号,114.59845,37.6076,311,餐饮美食,0,0,餐饮,其它,3,0.0
449,B2094656D364A6FB489B,半亩园,,114.61024,37.60103,311,中餐厅,0,0,餐饮,中式餐饮,3,123.2604159083507
450,B2094656D364A6FB499D,万佳糕点城,,114.61539,37.60277,311,糕饼店,1,0,餐饮,甜点饮品,3,69.32116170605555
451,B2094656D364A6F44093,吉星糕点房第一连锁店,,114.61642,37.60678,311,糕饼店,0,0,餐饮,甜点饮品,3,55.95660870712768
452,B2094656D364A6FA489F,沈记啤酒鸭火锅连锁店,,114.40493,37.66129,311,火锅店,0,0,餐饮,中式餐饮,3,100.11027062280675
453,B2094656D364A6FA499A,东环饭庄,,114.40498,37.66247,311,中餐厅,0,0,餐饮,中式餐饮,3,31.147020205078043
454,B2094656D364A6FA499B,妙香酒楼,,114.40499,37.66275,311,综合酒楼,0,0,餐饮,中式餐饮,3,24.408189500324728
455,B2094656D364A0FB459D,十里香美食广场,,114.51673,37.755,311,中餐厅,0,0,餐饮,中式餐饮,3,165.39534585102012
456,B2094656D364A0FB4698,天府酒楼(元氏县公安局西),,114.51403,37.75453,311,综合酒楼,0,0,餐饮,中式餐饮,3,48.404515511264925
457,B2094656D364A0FB4699,老城根涮锅城,,114.51458,37.75455,311,火锅店,1,0,餐饮,中式餐饮,3,48.404515511264925
458,B2094656D364A0FB469D,雪利来面包房,,114.51857,37.75469,311,糕饼店,0,0,餐饮,甜点饮品,3,54.741965593777955
459,B2094656D364A0FB479A,大胖涮锅NO.338,,114.5193,37.7547,311,火锅店,1,0,餐饮,中式餐饮,3,52.27056394641312
460,B2094656D364A0FB4799,国强酒菜大全肉食店,,114.51993,37.75472,311,餐饮美食,0,0,餐饮,其它,3,55.43112521412358
461,B2094656D364A0FB4793,旺旺蛋糕面包房,,114.52317,37.75485,311,糕饼店,0,0,餐饮,甜点饮品,3,158.9313039025916
462,B2094656D364A7FC469D,白师傅红烧牛肉面元氏分店,,114.51715,37.75744,311,中餐厅,0,0,餐饮,中式餐饮,3,94.72038757547666
463,B2094656D364A7FC479F,佳佳快餐,,114.51525,37.75747,311,中餐厅,0,0,餐饮,中式餐饮,3,29.096002021090275
464,B2094656D364A7FC479C,海天饭店,,114.51492,37.75749,311,中餐厅,0,0,餐饮,中式餐饮,3,29.096002021090275
465,B2094656D364A7FC4899,老地方食府,,114.51606,37.75706,311,中餐厅,0,0,餐饮,中式餐饮,3,84.55250927579347
466,B2094656D364A0FB4599,黑土地美食城,,114.51895,37.75508,311,综合酒楼,18,5,餐饮,中式餐饮,3,52.27056394641312
467,B2094656D364A7FC4892,红鹰饭店,,114.51818,37.75719,311,中餐厅,0,0,餐饮,中式餐饮,3,94.72038757547666
468,B2094656D364ABF4499F,光明饭店(槐泉东路),,114.39865,37.66495,311,中餐厅,0,0,餐饮,中式餐饮,3,55.31178992149174
469,B2094656D364ABF44992,诸葛烤鱼(槐泉东路),,114.40143,37.66455,311,中餐厅,0,0,餐饮,中式餐饮,3,27.286850371209596
470,B2094656D364A7F54399,蒙牛冰淇淋赵县地区总经销,,114.76504,37.76166,311,冷饮店,4,1,餐饮,甜点饮品,3,121.06766752690424
471,B2094656D364A6FC419F,小南门餐馆,,114.7817,37.74204,311,中餐厅,9,2,餐饮,中式餐饮,3,97.13838331913279
472,B2094656D364A7F84192,二龙德大粥铺赵县分店,,114.76858,37.75162,311,中餐厅,5,1,餐饮,中式餐饮,3,45.05863306042346
473,B2094656D364A7FF499B,康龙餐馆,,114.76932,37.75366,311,中餐厅,6,0,餐饮,中式餐饮,3,16.771664168437045
474,B2094656D364A7F8419A,特好特,,114.76921,37.7521,311,中餐厅,2,0,餐饮,中式餐饮,3,53.1060349314237
475,B2094656D364A6FD4292,花样年华音乐茶座,,114.76668,37.7489,311,茶艺馆,2,0,餐饮,甜点饮品,3,30.4876206153536
476,B2094656D364A6FE409E,古赵州名吃,,114.7766,37.74774,311,中餐厅,2,0,餐饮,中式餐饮,3,21.215062643139717
477,B2094752D26DA0F5489F,老张驴肉,近郊赵县石塔路,114.77087,37.74843,311,河北菜,2,1,餐饮,中式餐饮,3,38.53712224828479
478,B2094656D364A7FF499A,迷你蛋糕(永通路),,114.76934,37.75381,311,糕饼店,8,6,餐饮,甜点饮品,3,16.771664168437045
479,B2094656D364A7F94299,绿岛园音乐茶庄,,114.7659,37.75113,311,茶艺馆,89,55,餐饮,甜点饮品,3,62.76056192323854
480,B2094656D364A7FA409B,山西运城饺子馆,,114.77593,37.75346,311,特色／地方风味餐厅,1,0,餐饮,中式餐饮,3,169.1889483786356
481,B2094656D364A7FB449E,仨兄弟小吃,,114.77108,37.75761,311,快餐厅,1,0,餐饮,小吃快餐,3,42.29063736419196
482,B2094656D364A6FC479E,燕丰楼,,114.77906,37.7479,311,综合酒楼,1,0,餐饮,中式餐饮,3,195.33807337635582
483,B2094656D364A6FD4198,福盛楼餐厅,,114.76911,37.75045,311,中餐厅,4,1,餐饮,中式餐饮,3,14.45534046365593
484,B2094656D364A6FD469B,力杰薛家烧饼铺,,114.77481,37.74756,311,餐饮美食,1,0,餐饮,其它,3,39.954309816451016
485,B2094751DB6FAAF5459D,温州海鲜酒楼,宁晋县南环路饭店一条街131号,114.77703,37.741161,311,餐饮美食,0,0,餐饮,其它,3,401.84666893999866
486,B2094751DB64ABF4449E,滋味坊,近郊赵县自强路(近信誉楼商厦),114.73647,37.75824,311,河北菜,1,1,餐饮,中式餐饮,3,0.8453534435271766
487,B2094752D26DA0FF419F,东门口快餐,近郊赵县升华街(近石塔路),114.78127,37.74808,311,快餐厅,0,0,餐饮,小吃快餐,3,163.52997139155565
488,B2094752D26DA0F94698,薛二娃肉食,近郊赵县石塔路(近陀罗尼经幢),114.77018,37.74865,311,河北菜,0,0,餐饮,中式餐饮,3,23.318039503126027
489,B2094751D36CA1FB439D,八代祖传全驴宴,近郊赵县石塔路,114.76693,37.74871,311,河北菜,0,0,餐饮,中式餐饮,3,30.4876206153536
490,B2094757D46AA6FA4199,都市农家院,自强路(近建行),114.7364743,37.7582468,311,中餐厅,0,0,餐饮,中式餐饮,3,0.0
491,B2094757D46AA5F54492,王记老酒熏肉坊,桥东区自强路(近火车站),114.75704,37.76073,311,快餐厅,0,0,餐饮,小吃快餐,3,0.0
492,B2094757D46AAAF8439B,龙滨饭店,桥西区自强路(南小街口),114.75704,37.76073,311,快餐厅,0,0,餐饮,小吃快餐,3,0.0
493,B2094757D76CAAFD4293,红豆又一村,桥西区自强路与华安街交叉口北侧(近旅游7号线华安街站),114.75704,37.76073,311,四川菜,0,0,餐饮,中式餐饮,3,0.0
494,B2094757D76DA2F4429C,新良谷丰大饭店,自强路与南花园步行街交叉口北行100米街西(近省建设银行),114.7364743,37.7582468,311,中餐厅,0,0,餐饮,中式餐饮,3,0.0
495,B2094757D768A6FA479D,吉思客,桥东区自强路3号(火车站对面),114.75704,37.76073,311,快餐厅,1,0,餐饮,小吃快餐,3,0.0
496,B2094757D76AA6FA429D,亚惠酒家,近郊赵县308国道交警大队南侧(近汽车站),114.76397,37.75403,311,河北菜,0,0,餐饮,中式餐饮,3,64.87909396237474
497,B2094757D76AABFA429E,吉野家 自强店,桥西区自强路(华联商场北),114.75704,37.76073,311,快餐厅,0,0,餐饮,小吃快餐,3,0.0
498,B2094757D76BAAF8459E,吉祥馄饨 自强路店,桥东区自强路(中山体育馆对面),114.75704,37.76073,311,快餐厅,0,0,餐饮,小吃快餐,3,0.0
499,B2094757D764A7FF4493,吉祥馄饨 赵县柏林店,近郊赵县石塔路柏林寺门口西邻(近柏林大街),114.7765245,37.747926,311,快餐厅,0,0,餐饮,小吃快餐,3,0.77566577812367
500,B2094757D765A1F44493,李先生加州牛肉面,桥东区自强路(石家庄火车站对面),114.75704,37.76073,311,快餐厅,1,0,餐饮,小吃快餐,3,0.0
501,B2094656D364A7F8429C,野山羊特色烧烤,,114.76654,37.75138,311,特色／地方风味餐厅,0,0,餐饮,中式餐饮,3,15.864442984430775
502,B2094656D364A7F84292,北方烧烤城赵县店,,114.76672,37.75137,311,特色／地方风味餐厅,0,0,餐饮,中式餐饮,3,15.864442984430775
503,B2094656D364A7F8439C,老北京餐馆,,114.76916,37.75117,311,中餐厅,0,0,餐饮,中式餐饮,3,37.821641612514796
504,B2094656D364A7F84493,桃源饺子城,,114.76383,37.76114,311,特色／地方风味餐厅,0,0,餐饮,中式餐饮,3,121.06766752690424
505,B2094656D364A7F9429F,青年饭店,,114.76453,37.75365,311,中餐厅,0,0,餐饮,中式餐饮,3,64.87909396237474
506,B2094656D364A7F94292,仁济餐厅,,114.76531,37.75401,311,中餐厅,0,0,餐饮,中式餐饮,3,46.23715310777023
507,B2094656D364A7F9449B,紫月亮咖啡屋(永通路),,114.76866,37.75384,311,咖啡厅,0,0,餐饮,甜点饮品,3,59.87596119519834
508,B2094656D364A7F94492,顺德香快餐屋,,114.77126,37.7537,311,中餐厅,0,0,餐饮,中式餐饮,3,94.51183485044136
509,B2094656D364A7FF4692,兰州正宗牛肉拉面(贡院街),,114.76959,37.75116,311,中餐厅,0,0,餐饮,中式餐饮,3,37.821641612514796
510,B2094656D364A7FF479D,全福德餐厅,,114.76968,37.7524,311,中餐厅,0,0,餐饮,中式餐饮,3,24.52599630374838
511,B2094656D364A7FF489A,西四饭店外卖菜,,114.7697,37.75262,311,中餐厅,0,0,餐饮,中式餐饮,3,24.52599630374838
512,B2094656D364A7FF4999,龙宝美食苑,贡院街16,114.76931,37.75345,311,中餐厅,0,0,餐饮,中式餐饮,3,23.367479038723086
513,B2094656D364A7FF4993,食为天餐馆,贡院街30,114.76927,37.75297,311,中餐厅,0,0,餐饮,中式餐饮,3,18.984740845686808
514,B2094656D364A7F84098,宽阔茶社,,114.76925,37.7528,311,茶艺馆,0,0,餐饮,甜点饮品,3,5.628829870471379
515,B2094656D364A7F84099,金都川菜府,贡院街38,114.76926,37.75275,311,四川菜,0,0,餐饮,中式餐饮,3,5.628829870471379
516,B2094656D364A7F8419F,紫茗园,,114.76909,37.75158,311,综合酒楼,0,0,餐饮,中式餐饮,3,45.05863306042346
517,B209475CD064A4FF4592,康龙,赵县贡院街,114.76969,37.75366,311,河北菜,0,0,餐饮,中式餐饮,3,32.529038540290195
518,B209475CD069A4F4469A,开封府饺子馆,赵县石桥大街,114.77475,37.7489,311,特色／地方风味餐厅,0,0,餐饮,中式餐饮,3,17.034989896241505
519,B209475CD06DA5FA419E,志刚饭店,赵县赵州桥眭家营村,114.76241,37.70433,311,中餐厅,0,0,餐饮,中式餐饮,3,4292.544489411245
520,B2094656D364A7F4429E,北龙水饺,,114.76507,37.75438,311,特色／地方风味餐厅,0,0,餐饮,中式餐饮,3,35.23643034738606
521,B2094656D364A7F4439A,白洋淀豆腐王赵县分店,,114.76455,37.75254,311,中餐厅,0,0,餐饮,中式餐饮,3,123.43889264946775
522,B2094656D364A7F5439C,味道府水饺店,,114.76123,37.7614,311,特色／地方风味餐厅,0,0,餐饮,中式餐饮,3,104.61539254857803
523,B2094656D364A7F5449E,家常水饺骨头馆,,114.76004,37.76139,311,特色／地方风味餐厅,0,0,餐饮,中式餐饮,3,15.862312592426028
524,B2094656D364A7F5449F,鸳鸯烧麦馆,,114.7599,37.76148,311,中餐厅,0,0,餐饮,中式餐饮,3,15.862312592426028
525,B2094656D364A6FC4198,柏林铁锅炖,柏林大街42,114.78195,37.74454,311,中餐厅,1,0,餐饮,中式餐饮,3,277.52069980075134
526,B2094656D364A6FC419D,杰龙蒸饺馆,,114.7816,37.74117,311,中餐厅,0,0,餐饮,中式餐饮,3,97.13838331913279
527,B2094656D364A6FC429F,晓萍烧烤涮,,114.78267,37.74697,311,特色／地方风味餐厅,0,0,餐饮,中式餐饮,3,69.70673659508788
528,B2094656D364A6FC439A,宴宾楼饭店,,114.7835,37.74713,311,中餐厅,0,0,餐饮,中式餐饮,3,38.69670279132538
529,B2094656D364A6FC449A,进发饭店,近郊赵县石塔路(升华街口),114.77652,37.74792,311,河北菜,0,0,餐饮,中式餐饮,3,0.77566577812367
530,B2094656D364A6FC4692,杨氏好滋味连锁加盟店,,114.783,37.74754,311,中餐厅,0,0,餐饮,中式餐饮,3,62.5429585280095
531,B2094656D364A6FC479D,刘记八珍烤鸡,,114.77657,37.74811,311,餐饮美食,0,0,餐饮,其它,3,20.847304821160748
532,B2094656D364A6FC4792,惠雅轩饭店,,114.77587,37.74816,311,中餐厅,0,0,餐饮,中式餐饮,3,42.87488751391802
533,B2094656D364A6FC489A,向阳美食城,,114.77429,37.74838,311,综合酒楼,0,0,餐饮,中式餐饮,3,34.1651735233511
534,B2094656D364A6FC4898,刘冬华肉食部,,114.77359,37.74834,311,餐饮美食,0,0,餐饮,其它,3,61.706339871270686
535,B2094656D364A6FC4893,兄弟佳业餐饮部,,114.76993,37.74858,311,中餐厅,0,0,餐饮,中式餐饮,3,23.318039503126027
536,B2094656D364A6FC499E,认一利饭店,,114.76944,37.74885,311,中餐厅,0,0,餐饮,中式餐饮,3,52.511011819384905
537,B2094656D364A6FD4098,麦香炸鸡,,114.7695,37.7497,311,餐饮美食,0,0,餐饮,其它,3,30.138271259203606
538,B2094656D364A6FD409E,布衣村饭庄,,114.76953,37.74997,311,中餐厅,4,0,餐饮,中式餐饮,3,30.138271259203606
539,B2094656D364A6FD419A,后传人拨面馆赵县分店,,114.76911,37.75058,311,中餐厅,0,0,餐饮,中式餐饮,3,14.45534046365593
540,B2094656D364A6FD429E,富豪肥牛城,,114.76854,37.74868,311,火锅店,0,0,餐饮,中式餐饮,3,52.94049997686578
541,B2094656D364A6FD429F,都市快餐,,114.76794,37.74872,311,中餐厅,0,0,餐饮,中式餐饮,3,52.94049997686578
542,B2094656D364A6FD4499,万香园西饼屋,,114.77449,37.74885,311,糕饼店,0,0,餐饮,甜点饮品,3,21.417752904269264
543,B2094656D364A6FD449E,新口味蛋糕城,石桥大街108,114.77445,37.74866,311,糕饼店,0,0,餐饮,甜点饮品,3,21.417752904269264
544,B2094656D364A6FD449C,永鑫肉食店,,114.77436,37.74761,311,餐饮美食,0,0,餐饮,其它,3,39.954309816451016
545,B2094656D364A6FD449D,利民小吃部,,114.77429,37.74703,311,快餐厅,0,0,餐饮,小吃快餐,3,26.81682261734646
546,B2094656D364A6FD4492,张果老正宗驴肉,,114.77426,37.74679,311,特色／地方风味餐厅,1,1,餐饮,中式餐饮,3,26.81682261734646
547,B2094656D364A6FD459A,福星楼饭店,,114.77421,37.74627,311,中餐厅,0,0,餐饮,中式餐饮,3,57.988247165160374
548,B2094656D364A7FA4998,杰龙砂锅城,,114.77478,37.75468,311,中餐厅,0,0,餐饮,中式餐饮,3,40.03982643216506
549,B2094656D364A7FA499F,同春熏肉铺,,114.77479,37.75504,311,中餐厅,0,0,餐饮,中式餐饮,3,40.03982643216506
550,B2094656D364A7FA4992,傅记羊汤,,114.77433,37.75485,311,中餐厅,0,0,餐饮,中式餐饮,3,43.84587704002335
551,B2094656D364A7FB4293,鲁记炒菜肉食店,,114.77088,37.75454,311,中餐厅,0,0,餐饮,中式餐饮,3,55.92195541996895
552,B2094656D364A7FB4399,佳佳餐厅,,114.77098,37.75595,311,中餐厅,0,0,餐饮,中式餐饮,3,40.57759842959133
553,B2094656D364A7FB4499,鑫阳熟食,,114.77106,37.75723,311,餐饮美食,0,0,餐饮,其它,3,42.29063736419196
554,B2094656D364A7FB4492,美味春餐厅,,114.77111,37.75803,311,中餐厅,0,0,餐饮,中式餐饮,3,46.776277696110824
555,B2094656D364A7FB499F,星期五快餐,,114.77055,37.75656,311,中餐厅,0,0,餐饮,中式餐饮,3,64.54696213186848
556,B2094656D364A7F44092,百事乐蛋糕专卖店,,114.7704,37.75421,311,糕饼店,0,0,餐饮,甜点饮品,3,54.19049685960168
557,B2094656D364A6FD469F,好再来熟食坊,,114.77494,37.74887,311,餐饮美食,0,0,餐饮,其它,3,17.034989896241505
558,B2094656D364A6FD4792,四通饭店,,114.76612,37.74911,311,中餐厅,0,0,餐饮,中式餐饮,3,54.49287252010188
559,B2094656D364A6FD4892,海天餐馆,,114.77111,37.74814,311,中餐厅,0,0,餐饮,中式餐饮,3,16.74231429239991
560,B2094656D364A6FD4893,一家人快餐,,114.7713,37.74813,311,中餐厅,0,0,餐饮,中式餐饮,3,16.74231429239991
561,B2094656D364A6FD499A,贵宾苑,,114.77177,37.7481,311,中餐厅,0,0,餐饮,中式餐饮,3,41.458191097288484
562,B2094656D364A6FD4998,华园春饭店,,114.77252,37.74805,311,中餐厅,0,0,餐饮,中式餐饮,3,66.176179921151
563,B2094656D364A6FD4992,惠风园,,114.7752,37.74785,311,中餐厅,0,0,餐饮,中式餐饮,3,38.8297821229748
564,B2094656D364A6FE409A,同兴快餐,,114.77564,37.74782,311,中餐厅,0,0,餐饮,中式餐饮,3,38.8297821229748
565,B2094656D364A7FD419C,李氏涮园元氏分店,,114.53131,37.75819,311,火锅店,7,2,餐饮,中式餐饮,3,37.18951582159231
566,B2094656D364A0F44398,小肥羊元氏分店,,114.5383,37.75463,311,火锅店,2,0,餐饮,中式餐饮,3,17.877863514141776
567,B2094656D364A0F5469E,好日子火锅城,,114.52375,37.75817,311,火锅店,5,0,餐饮,中式餐饮,3,17.722282354615686
568,B2094656D364A7FC419F,紫云轩酒楼,,114.52283,37.76732,311,综合酒楼,23,0,餐饮,中式餐饮,3,68.7457522265683
569,B2094656D364A7FD4499,一品楼饭庄,,114.53816,37.75965,311,中餐厅,7,1,餐饮,中式餐饮,3,65.40367342140627
570,B2094656D364A0FA429F,金三角酒楼,,114.5285,37.75324,311,综合酒楼,2,0,餐饮,中式餐饮,3,117.87973677327064
571,B2094656D364A7FC4499,红灯笼食府,,114.52265,37.75863,311,中餐厅,5,0,餐饮,中式餐饮,3,42.29063598158735
572,B2094656D364A7FD4899,井元饭店,,114.5337,37.77536,311,中餐厅,1,0,餐饮,中式餐饮,3,96.43770086901783
573,B2094656D364A7FE4498,溢香苑食府,,114.52169,37.76648,311,中餐厅,7,0,餐饮,中式餐饮,3,58.02536735483644
574,B2094656D364ABF4429E,六合居(中央大街),,114.5233,37.76818,311,中餐厅,101,39,餐饮,中式餐饮,3,39.45104361275275
575,B2094656D364ABF5469D,小肥羊火锅(槐阳镇店),元氏县槐阳大街84号,114.53801,37.75509,311,火锅店,1,0,餐饮,中式餐饮,3,36.30110744197839
576,B2094757D76AA6FB449C,派乐汉堡,元氏县商业街坊,114.525437,37.766645,311,西餐厅,0,0,餐饮,国际餐饮,3,87.81723296213804
577,B2094757D76BAAFA449D,梁家排骨,107国道(近火车站),114.53574,37.80291,311,中餐厅,1,1,餐饮,中式餐饮,3,3068.660753023268
578,B2094752D26DABFD4698,光真楼木火铁锅炖,近郊正定县文化街广惠寺广场对面(近广惠路),114.52701,37.76635,311,餐饮美食,0,0,餐饮,其它,3,46.793007264851255
579,B2094450D66FA0FA4292,吉星糕点房,河北省 石家庄市 元氏县,114.51716,37.76681,311,餐饮美食,0,0,餐饮,其它,3,0.0
580,B2094450D66FA0FA4492,吉星糕点房,河北省 石家庄市 元氏县,114.51716,37.76681,311,餐饮美食,1,0,餐饮,其它,3,0.0
581,B2094450D66FA2FD409D,清真星月斋,河北省 石家庄市 河北省石家庄市元氏县槐阳大街,114.53773,37.76013,311,餐饮美食,0,0,餐饮,其它,3,65.40367342140627
582,B2094656D364A0F4459D,皇冠蛋糕,,114.53839,37.75728,311,糕饼店,0,0,餐饮,甜点饮品,3,56.85869160876004
583,B2094656D364A0F44798,兴园楼餐厅,,114.53909,37.75894,311,中餐厅,0,0,餐饮,中式餐饮,3,44.403378687337515
584,B2094656D364A0F54292,德盛饭店,,114.5321,37.75863,311,中餐厅,0,0,餐饮,中式餐饮,3,55.10255696768092
585,B2094656D364A0F5439F,群聚烧烤店,,114.53082,37.75854,311,特色／地方风味餐厅,0,0,餐饮,中式餐饮,3,47.627988921583714
586,B2094656D364A0F5469F,喜洋洋饺子馆,,114.52355,37.75815,311,特色／地方风味餐厅,0,0,餐饮,中式餐饮,3,17.722282354615686
587,B2094656D364A0F5479D,白狮子饭店,,114.52322,37.76391,311,中餐厅,0,0,餐饮,中式餐饮,3,44.75653759008202
588,B2094656D364A0F44793,西北牛肉拉面,,114.54161,37.75919,311,快餐厅,0,0,餐饮,小吃快餐,3,113.68026898771954
589,B2094656D364A0F4499A,旺旺蛋糕(元氏县中医院东),,114.54035,37.75942,311,糕饼店,0,0,餐饮,甜点饮品,3,94.85512870815374
590,B2094656D364A0F4499D,猫嫂美食城,,114.53928,37.75931,311,中餐厅,0,0,餐饮,中式餐饮,3,44.403378687337515
591,B2094656D364A0F5419A,好再来饺子馆,,114.53552,37.75896,311,特色／地方风味餐厅,0,0,餐饮,中式餐饮,3,88.47453428656974
592,B2094656D364A0F5429B,兴安岭酒家,,114.53384,37.75879,311,中餐厅,0,0,餐饮,中式餐饮,3,80.95068328814322
593,B2094656D364A0F54899,草原兴发涮园元氏分店,,114.52324,37.76463,311,火锅店,0,0,餐饮,中式餐饮,3,28.924041345143603
594,B2094656D364A0F54892,京华辣婆婆水煮鱼,,114.52323,37.76489,311,中餐厅,0,0,餐饮,中式餐饮,3,7.8331232569174585
595,B2094656D364A0F54893,京华饭店(中央大街),,114.52324,37.76496,311,中餐厅,1,0,餐饮,中式餐饮,3,7.8331232569174585
596,B2094656D364A0F5499B,连义肉食老店,,114.52324,37.7652,311,餐饮美食,0,0,餐饮,其它,3,18.923564502943066
597,B2094656D364A0F54999,香满园,,114.52325,37.76537,311,中餐厅,0,0,餐饮,中式餐饮,3,18.923564502943066
598,B2094656D364A0F5499C,新疆风味饭店,,114.52325,37.76561,311,中餐厅,0,0,餐饮,中式餐饮,3,26.686782395529907
599,B2094656D364A7FC409B,老兵颐站,,114.52329,37.76782,311,中餐厅,0,0,餐饮,中式餐饮,3,40.03982300296096
600,B2094656D364A7FC419A,居一鹤酒楼,,114.52286,37.76825,311,综合酒楼,0,0,餐饮,中式餐饮,3,39.45104361275275
601,B2094656D364A7FC4192,荣兴酒楼,,114.52265,37.76649,311,综合酒楼,0,0,餐饮,中式餐饮,3,84.39236165914217
602,B2094656D364A7FC4298,福满楼,,114.5228,37.76467,311,综合酒楼,0,0,餐饮,中式餐饮,3,38.93233657205552
603,B2094656D364A7FC4293,来来饭庄,,114.52276,37.76276,311,中餐厅,1,1,餐饮,中式餐饮,3,105.97809848511845
604,B2094656D364A7FD459E,吉林快餐,,114.53722,37.76762,311,中餐厅,0,0,餐饮,中式餐饮,3,56.818303133309584
605,B2094656D364A7FD459D,爱心美食楼,,114.53718,37.76813,311,中餐厅,0,0,餐饮,中式餐饮,3,56.818303133309584
606,B2094656D364A7FD489C,聚友餐厅,,114.53241,37.77533,311,中餐厅,0,0,餐饮,中式餐饮,3,52.17127252836345
607,B2094656D364A7FD4893,宇祥圆饭店,,114.53274,37.77494,311,中餐厅,0,0,餐饮,中式餐饮,3,52.17127252836345
608,B2094656D364A7FC449B,东东顺元氏饭庄,,114.52267,37.75901,311,中餐厅,0,0,餐饮,中式餐饮,3,42.29063598158735
609,B2094656D364A7FD4099,贵州面馆,,114.52761,37.75804,311,中餐厅,0,0,餐饮,中式餐饮,3,101.79476087990594
610,B2094656D364A7FD419B,山里人家,,114.53057,37.75816,311,中餐厅,0,0,餐饮,中式餐饮,3,47.627988921583714
611,B2094656D364A7FD4192,佳香饺子馆,,114.53173,37.75823,311,特色／地方风味餐厅,0,0,餐饮,中式餐饮,3,37.18951582159231
612,B2094656D364A7FD429C,晶鑫蛋糕屋,,114.53469,37.75851,311,糕饼店,0,0,餐饮,甜点饮品,3,80.95068328814322
613,B2094656D364A7FD439D,育才肉食品商店,,114.53746,37.75878,311,餐饮美食,0,0,餐饮,其它,3,114.6530667716697
614,B2094656D364A7FE459F,聚仙楼饭店,,114.51747,37.76649,311,中餐厅,0,0,餐饮,中式餐饮,3,44.81772457733218
615,B2094656D364A7FE4592,清华饺子馆,,114.51588,37.76649,311,特色／地方风味餐厅,0,0,餐饮,中式餐饮,3,62.36673107540136
616,B2094656D364A7FE4692,聚香圆饺子馆,,114.51527,37.76605,311,特色／地方风味餐厅,0,0,餐饮,中式餐饮,3,14.943271326829562
617,B2094656D364A7FE4693,怡品轩饭店,,114.51544,37.76605,311,中餐厅,0,0,餐饮,中式餐饮,3,14.943271326829562
618,B2094656D364A7FE4798,金冠蛋糕,,114.51636,37.76605,311,糕饼店,0,0,餐饮,甜点饮品,3,64.60611168495656
619,B2094656D364A7FE479F,来源快餐,,114.5177,37.76605,311,中餐厅,0,0,餐饮,中式餐饮,3,52.93836272021106
620,B2094656D364A7FE479D,家乐福蛋糕,,114.51866,37.76605,311,糕饼店,0,0,餐饮,甜点饮品,3,84.38553219853725
621,B2094656D364A7FE499B,天香饺子馆,,114.52665,37.76604,311,特色／地方风味餐厅,0,0,餐饮,中式餐饮,3,46.793007264851255
622,B2094656D364A7FD4992,海桥饭店,,114.53587,37.77479,311,中餐厅,0,0,餐饮,中式餐饮,3,200.97884889575218
623,B2094656D364A7FE419C,西北正宗牛肉拉面,,114.53627,37.7665,311,中餐厅,0,0,餐饮,中式餐饮,3,42.20716193499231
624,B2094656D364A7FE419D,赵州驴肉大全,,114.53579,37.76649,311,特色／地方风味餐厅,0,0,餐饮,中式餐饮,3,11.427139500355684
625,B2094656D364A7FE4192,蒙古饭店,,114.53566,37.76649,311,中餐厅,0,0,餐饮,中式餐饮,3,11.427139500355684
626,B2094656D364A7FE4193,百味鲜食府,,114.53543,37.76648,311,中餐厅,0,0,餐饮,中式餐饮,3,20.247803702282816
627,B2094656D364A7FE4398,金桂苑饭庄,,114.52446,37.76648,311,中餐厅,0,0,餐饮,中式餐饮,3,7.0320867972389145
628,B2094656D364A7FE4399,飘香酒楼,,114.52438,37.76648,311,综合酒楼,0,0,餐饮,中式餐饮,3,7.0320867972389145
629,B2094656D364A7FE449E,吉林餐馆,,114.52103,37.76649,311,中餐厅,0,0,餐饮,中式餐饮,3,58.02536735483644
630,B2094656D364A7FF429E,(元氏服务区)餐厅,,114.60498,37.78462,311,中餐厅,7,5,餐饮,中式餐饮,3,6171.327071617781
631,B2094753D469A6F5409E,鲜果时刻,河北省 石家庄市 元氏名门金街店,114.538032,37.755416,311,餐饮美食,112,54,餐饮,其它,3,36.30110744197839
632,B2094457D06AAAF5459A,曹家大厨,河北省 石家庄市 元氏县中央大街,114.52416,37.77143,311,餐饮美食,0,0,餐饮,其它,3,369.20471623235835
633,B209475CD06DA0F54498,米莎贝尔 人民店,元氏县人民路双龙花园,114.5268,37.75488,311,甜品店,1,1,餐饮,甜点饮品,3,157.90797940979886
634,B2094753D76AA6F9429B,侯氏涮园(元氏店),石家庄市元氏县文化路(向阳街口南行100米路西),114.522776,37.763713,311,火锅店,0,0,餐饮,中式餐饮,3,44.75653759008202
635,B2094656D364A0FA4399,吉美蛋糕屋,,114.52848,37.7543,311,糕饼店,0,0,餐饮,甜点饮品,3,86.07026818841099
636,B2094656D364A0FA4498,A·里乐蛋糕房,,114.52846,37.75646,311,糕饼店,0,0,餐饮,甜点饮品,3,16.702391487755765
637,B2094656D364A0FA449E,吉祥饺子馆,,114.52847,37.75661,311,特色／地方风味餐厅,0,0,餐饮,中式餐饮,3,16.702391487755765
638,B2094656D364A0FA469E,金园酒楼,,114.53697,37.76565,311,综合酒楼,0,0,餐饮,中式餐饮,3,23.49936728851868
639,B2094656D364A0FA469C,食为天干锅居,,114.537,37.76544,311,中餐厅,0,0,餐饮,中式餐饮,3,23.49936728851868
640,B2094656D364A0FA4892,飘香阁饭店,,114.53804,37.75685,311,中餐厅,0,0,餐饮,中式餐饮,3,56.85869160876004
641,B2094656D364A0FB419B,金福酒楼,,114.53204,37.75558,311,综合酒楼,0,0,餐饮,中式餐饮,3,94.6236767160864
642,B2094656D364A0FB4393,温州蛋糕房(元氏县医院东),,114.52489,37.75529,311,糕饼店,0,0,餐饮,甜点饮品,3,158.9313039025916
643,B2094656D364A0FB4999,广州麦利华蛋糕屋,,114.52858,37.75507,311,糕饼店,0,0,餐饮,甜点饮品,3,86.07026818841099
644,B2094656D364A0F44099,紫竹园食府,,114.53109,37.75518,311,中餐厅,0,0,餐饮,中式餐饮,3,94.6236767160864
645,B2094656D364A0F4439A,赵氏烤鸡店,,114.53828,37.75479,311,餐饮美食,0,0,餐饮,其它,3,17.877863514141776
646,B2094656D364A7FF409C,万家园蛋糕房,,114.52804,37.75909,311,糕饼店,0,0,餐饮,甜点饮品,3,22.238985329136707
647,B2094656D364A7FF4092,康泰快餐康泰城连锁店,,114.52804,37.75889,311,中餐厅,0,0,餐饮,中式餐饮,3,22.238985329136707
648,B209475CD36FA2F8409E,品沫奶茶,河北科技大学南大学商城2-2-29号(近裕翔街),114.51897,37.97315,311,甜品店,0,0,餐饮,甜点饮品,0,364.5542765170124
649,B2094751DB69A5F9449E,肉夹馍,近郊栾城县308国道水系旁(近308原收费站),114.5625,37.97106,311,快餐厅,0,0,餐饮,小吃快餐,0,837.1546346662033
650,B2094752D26CA7F84193,三元饭店,近郊栾城冶河大道(卓达太阳城对面),114.59839,37.94327,311,餐饮美食,0,0,餐饮,其它,0,4173.073435001847
651,B2094757D768A6FE4392,左岸咖啡,裕华区方村镇工业园,114.559595,37.978232,311,咖啡厅,0,0,餐饮,甜点饮品,0,837.1546346662033
652,B2094753D265ABFC479E,快乐麦肯科大店,河北科技大学南校区南门2期2排59号,114.528787,37.976854,311,快餐厅,0,0,餐饮,小吃快餐,0,8.006034718234577
653,B2094753D36CA0FA4493,冰凌城下冰淇淋店,河北科技大学大学商城1期3排34号,114.52899,37.976922,311,冷饮店,0,0,餐饮,甜点饮品,0,19.332991934175073
654,B2094753D36CA4F44299,派乐汉堡科大店,河北科技大学大学商城一期二排24-26号,114.528787,37.976782,311,快餐厅,23,11,餐饮,小吃快餐,0,8.006034718234577
655,B2094753D36DA7F54992,聚味吧,裕翔街新科大南门,114.519653,37.969838,311,冷饮店,0,0,餐饮,甜点饮品,0,27.240828315021318
656,B2094753D36DA6FC4093,南门吉祥馄饨,裕翔街新科大南门二期四排四号,114.520308,37.969681,311,快餐厅,0,0,餐饮,小吃快餐,0,24.950550283585198
657,B2094753D36DA6FC429A,竹荪鱿鱼鸡火锅,裕翔街新科大南门二期一排,114.520633,37.970145,311,火锅店,0,0,餐饮,中式餐饮,0,43.029562456456965
658,B2094753D36DA6FC479A,呷哺火锅店,裕翔街新科大南门二期四排,114.520063,37.969012,311,火锅店,0,0,餐饮,中式餐饮,0,77.42755425682202
659,B2094753D36DA6FD429A,moka欧式咖啡,裕翔街新科大南门二期三排四号,114.520252,37.969901,311,冷饮店,0,0,餐饮,甜点饮品,0,24.950550283585198
660,B2094753D36DA6FD449B,天宏星牌台球俱乐部,裕翔街新科大南门二期一排东头,114.519557,37.969605,311,快餐厅,0,0,餐饮,小吃快餐,0,27.240828315021318
661,B2094656D364A0F8479D,天宏涮肉,,114.64948,37.88773,311,火锅店,0,0,餐饮,中式餐饮,3,40.186253485846095
662,B2094457D16AAAFF469C,烧烤传琦,河北省 石家庄市 辛集市市府街尚都高层,115.22773,37.91582,311,餐饮美食,0,0,餐饮,其它,1,248.93258532285427
663,B2094457D16FAAFC4399,德克士,河北省 石家庄市 兴华路,115.22223,37.91815,311,餐饮美食,1,1,餐饮,其它,1,19.58470225830547
664,B2094457D16FA5FE419F,北京,河北省 石家庄市 朝阳区王府井,115.2214,37.93707,311,餐饮美食,1,1,餐饮,其它,1,421.4283917115879
665,B2094457D16CA1F44598,千禧小区,河北省 石家庄市 石家庄辛集,115.2247,37.91429,311,餐饮美食,1,0,餐饮,其它,1,122.20874516679105
666,B2094757D46BA6FA439B,一菲烤肉 建设大街店,建设大街(近槐安路),115.2161471,37.9180623,311,韩国料理,5,2,餐饮,国际餐饮,1,0.0
667,B2094757D465A7F84799,湘君府 建设大街店,长安区建设大街(中山路口),115.22083,37.91796,311,湖南菜,2,0,餐饮,中式餐饮,1,0.0
668,B2094656D364A1F5479D,巴西烧烤,,115.21438,37.93205,311,巴西菜,7,1,餐饮,国际餐饮,1,60.19024801773559
669,B2094656D364A0FC479E,飞马餐厅,,115.20883,37.91797,311,中餐厅,7,1,餐饮,中式餐饮,1,152.09007579680502
670,B2094656D364A0FD439B,陶香园烘焙剧场,,115.22798,37.91805,311,糕饼店,5,1,餐饮,甜点饮品,1,109.65078024082595
671,B2094656D364A0FD449A,赵州驴肉火锅分店,,115.22193,37.91812,311,特色／地方风味餐厅,3,0,餐饮,中式餐饮,1,26.526741067067128
672,B2094656D364A0FE4398,鼎顶香,,115.21955,37.94311,311,综合酒楼,9,0,餐饮,中式餐饮,1,30.61096089914844
673,B2094656D364A0FA409E,咪你蛋糕,,115.21637,37.91542,311,糕饼店,6,2,餐饮,甜点饮品,1,159.41253083660223
674,B2094757D56FA1FC449A,重庆干锅鱼馆,中国河北省辛集市,115.22003961,37.90590278,311,中餐厅,1,0,餐饮,中式餐饮,1,276.06781654054845
675,B2094656D365ABFF429C,小肥羊火锅(迎宾路店),迎宾路北段皮货城对面,115.21521,37.94104,311,火锅店,1,0,餐饮,中式餐饮,1,0.0
676,B2094656D364A1F54592,贞真西饼屋,,115.21283,37.9381,311,糕饼店,11,3,餐饮,甜点饮品,1,113.12875133742762
677,B2094656D364A0FC469F,恒盛饭庄,,115.20623,37.91838,311,中餐厅,4,0,餐饮,中式餐饮,1,211.80486728561766
678,B2094656D364A0FC499F,云南过桥米线过桥园分店,,115.21865,37.91785,311,特色／地方风味餐厅,1,1,餐饮,中式餐饮,1,191.62210911846245
679,B2094656D364A0FD409A,香美新蛋糕世界,,115.22245,37.91776,311,糕饼店,6,2,餐饮,甜点饮品,1,40.03017359258754
680,B2094656D364A0FE4198,明红川菜,,115.21585,37.93695,311,四川菜,1,0,餐饮,中式餐饮,1,125.75870211389545
681,B2094656D364A0FE429E,布衣蜀乡楼,,115.21581,37.93947,311,四川菜,6,3,餐饮,中式餐饮,1,112.32057026578937
682,B2094656D364A0FE439D,常来顺,,115.21633,37.94311,311,中餐厅,5,0,餐饮,中式餐饮,1,14.90742381569638
683,B2094656D364A0FE4499,天赐酒楼,,115.21569,37.94359,311,综合酒楼,4,1,餐饮,中式餐饮,1,65.34942214398485
684,B2094656D364A0F9429F,正宗九洲大馅包子馆,,115.21588,37.91153,311,餐饮美食,1,0,餐饮,其它,1,94.51568764812367
685,B2094450D16EA3FA429B,文化长廊,河北省 石家庄市 河北省石家庄市辛集市,115.2176,37.92392,311,餐饮美食,2,2,餐饮,其它,1,151.4047109665504
686,B2094450D06BA1FA4692,iPhone绝味鸭脖版,河北省 石家庄市 ...,115.20337,37.92936,311,餐饮美食,1,1,餐饮,其它,1,451.50985955268305
687,B2094656D364A1F54693,伯爵咖啡,,115.21533,37.93467,311,咖啡厅,269,127,餐饮,甜点饮品,1,62.28788015989258
688,B2094757D765A0FE469B,段记驴肉,近郊束鹿大街(近市医院),115.22955,37.92664,311,快餐厅,9,1,餐饮,小吃快餐,1,595.7992395450971
689,B2094656D364A0FE4292,江苏饭店(迎宾路),辛集市迎宾路,115.21575,37.94097,311,综合酒楼,29,2,餐饮,中式餐饮,1,47.989786026585314
690,B2094757D56FA1FE449E,青岛扎啤美食城,中国河北省辛集市农贸街,115.21640272,37.90774902,311,中餐厅,29,16,餐饮,中式餐饮,1,61.564946357715485
691,B2094656D364A1F54998,金圆美食广场,,115.21551,37.92821,311,中餐厅,4,0,餐饮,中式餐饮,1,238.1266514195929
692,B2094656D364A0FD439F,小百灵餐厅,,115.2257,37.91808,311,中餐厅,3,0,餐饮,中式餐饮,1,49.26031156289566
693,B2094656D364A0F9419F,李记骨头馆,,115.21591,37.91378,311,中餐厅,18,3,餐饮,中式餐饮,1,39.72635796100723
694,B209475CD06FABF4489A,鼎盛楼,辛集市齐泰路40号商业城内,115.21914,37.94128,311,火锅店,0,0,餐饮,中式餐饮,1,163.4777112667127
695,B209475CD068A2FA4692,金鼎香台湾火锅,辛集市市府街89号金鼎香台湾火锅(国税局西面),115.22486,37.94287,311,火锅店,2,1,餐饮,中式餐饮,1,265.6514271225347
696,B209475CD069A1FC439D,烤天下,辛集市朝阳路南路3号(近建设街),115.20775,37.9169,311,烧烤,0,0,餐饮,中式餐饮,1,48.503957026275295
697,B209475CD069A1FA479D,吕记丸子肉,龙泉街(近水务局门口),115.21074,37.92507,311,特色／地方风味餐厅,0,0,餐饮,中式餐饮,1,238.26446943541694
698,B209475CD069A1FA489C,印象丽江正宗米线,辛集市方碑大街(电视塔东侧路北),115.22847,37.93193,311,特色／地方风味餐厅,0,0,餐饮,中式餐饮,1,595.7992395450971
699,B209475CD069A4F4469D,朝阳饭庄,辛集市朝阳路南段(新开街口),115.20742,37.91655,311,快餐厅,0,0,餐饮,小吃快餐,1,48.503957026275295
700,B209475CD06DA5F94598,肯德基 建设街店,辛集市建设街(兴华路口),115.2161,37.91822,311,快餐厅,0,0,餐饮,小吃快餐,1,18.0156063437584
701,B209475CD06DA4F94698,鼎香羊中羊,辛集市新华路(电视塔西侧),115.20788,37.94878,311,火锅店,0,0,餐饮,中式餐饮,1,895.5705362490464
702,B209475CD06DA4F94793,草原风情,辛集市教育大道(辛集中学对面),115.23171,37.89823,311,火锅店,0,0,餐饮,中式餐饮,1,1332.8138575706032
703,B209475CD06EA5FF409B,艳阳天 建设大街店,建设大街29号(范西路东南侧),115.22367,37.91503,311,湖南菜,0,0,餐饮,中式餐饮,1,122.20874516679105
704,B209475CD06CA5FA419E,胖大嫂麻辣面,兴华路(北国超市对面),115.2155665,37.9351982,311,特色／地方风味餐厅,0,0,餐饮,中式餐饮,1,0.0
705,B209475CD36FA5FD4199,肯德基 建设大街一店,建设大街(槐中路口),115.21614,37.91806,311,快餐厅,0,0,餐饮,小吃快餐,1,0.0
706,B209475CD36FA4FF4892,泼辣片片鱼 建设大街店,建设大街(民生路口),115.22083,37.91796,311,火锅店,0,0,餐饮,中式餐饮,1,0.0
707,B209475CD36FA4F84099,四川酒家,晋州市世纪商城(近农行),115.21586,37.91717,311,四川菜,0,0,餐饮,中式餐饮,1,76.09979400257282
708,B209475CD36FA4FB429A,桃酥大王 兴华路店,辛集市兴华路中段五交化1楼底商1号,115.2155665,37.9351982,311,特色／地方风味餐厅,0,0,餐饮,中式餐饮,1,0.0
709,B209475CD36EA0F54398,片片鱼冷火锅,辛集市市府街中段市府花园C-2号,115.22185,37.94314,311,火锅店,0,0,餐饮,中式餐饮,1,174.32421354965513
710,B209475CD36EA5FF4499,大理过桥米线,辛集市火车站附近,115.217962,37.943268,311,特色／地方风味餐厅,1,0,餐饮,中式餐饮,1,0.0
711,B209475CD36EAAF5439A,九禾西点 建设大街店,建设大街(近新世隆),115.2161471,37.9180623,311,甜品店,0,0,餐饮,甜点饮品,1,0.0
712,B2094751DB6EABFE459D,傻婆婆黄金薯塔,近郊农贸大街东段22-2号,115.21752,37.90739,311,快餐厅,0,0,餐饮,小吃快餐,1,105.84000004169634
713,B2094751DB6FA4F5439C,古洼一锅鲜,近郊辛集市兴华北路402号,115.21641,37.9137,311,火锅店,0,0,餐饮,中式餐饮,1,6.246793854443203
714,B2094751DB6BA2FB4798,赵记丸子肉,近郊辛集市东华路(芙蓉岛南侧),115.21919,37.92445,311,快餐厅,0,0,餐饮,小吃快餐,1,151.4047109665504
715,B2094751DB65AAFF4098,范儿旋转自助火锅,桥东区建设大街东海国际斜对面(新华路口),115.21614,37.91806,311,自助,0,0,餐饮,小吃快餐,1,0.0
716,B2094752D26DA2FF479C,陇琳面点王,近郊辛集市皮革城(近辛集建设集团生活区),115.21679,37.93814,311,快餐厅,0,0,餐饮,小吃快餐,1,41.20533687381493
717,B2094752D26DA7FF4393,德庄大火锅,近郊辛集市府街(东华路口),115.21987,37.943,311,火锅店,1,1,餐饮,中式餐饮,1,30.61096089914844
718,B2094751DB6DA3FF4393,东明大酒店中餐厅,近郊辛集市锚营制革区东明大酒店,115.25682,37.89826,311,河北菜,1,1,餐饮,中式餐饮,1,2203.260362944064
719,B2094757D46AA6FC499A,重庆豆花菜馆,桥东区建设大街(近和平路),115.22083,37.91796,311,四川菜,0,0,餐饮,中式餐饮,1,0.0
720,B2094757D46AA6FD4292,宜家菜馆,桥东区建设大街(近和平路),115.22083,37.91796,311,东北菜,0,0,餐饮,中式餐饮,1,0.0
721,B2094757D46AA6FA419C,天府豆花,朝阳路西首(近友谊北大街),115.207727,37.9271974,311,中餐厅,0,0,餐饮,中式餐饮,1,311.6475634929443
722,B2094757D46AAAF8439D,任师傅香掉渣烧饼,长安区建设大街(近北方大厦),115.22083,37.91796,311,快餐厅,0,0,餐饮,小吃快餐,1,0.0
723,B2094757D465A7F8469C,巫山烤全鱼,长安区建华南大衔199号(槐北路口),115.22083,37.91796,311,四川菜,2,0,餐饮,中式餐饮,1,0.0
724,B2094757D465A6FA459F,苏荷酒吧,长安区建设大街长安公园(近中山东路),115.22083,37.91796,311,北京菜,113,39,餐饮,中式餐饮,1,0.0
725,B2094757D76EA3FC4193,名家小厨,长安区建设大街68号(近第四十中学),115.22083,37.91796,311,四川菜,0,0,餐饮,中式餐饮,1,0.0
726,B2094757D76EABFC4498,东明大酒店中餐厅,辛集市锚营制革区东明大酒店,115.217962,37.943268,311,中餐厅,0,0,餐饮,中式餐饮,1,0.0
727,B2094757D769A0F5439D,巴巴布鲁奶茶功夫坊 建设大街店,长安区建设大街(近市图书馆),115.22083,37.91796,311,甜品店,0,0,餐饮,甜点饮品,1,0.0
728,B2094757D769A0F5449B,老巴台包子,长安区建设大街(近市图书馆),115.22083,37.91796,311,快餐厅,0,0,餐饮,小吃快餐,1,0.0
729,B2094757D769A0F54692,永和豆浆 建设大街店,长安区建设大街(休门街口),115.22083,37.91796,311,快餐厅,0,0,餐饮,小吃快餐,1,0.0
730,B2094757D769A7FC4199,美国加州牛肉面大王 建设大街店,长安区建设大街(近八家庄),115.22083,37.91796,311,快餐厅,0,0,餐饮,小吃快餐,1,0.0
731,B2094757D769A7FC4393,周黑鸭 建设大街店,长安区建设大街(裕华路口),115.22083,37.91796,311,快餐厅,0,0,餐饮,小吃快餐,1,0.0
732,B2094757D769A7FD409A,农家手擀面 建设大街店,长安区建设大街(正东路口),115.22083,37.91796,311,快餐厅,0,0,餐饮,小吃快餐,1,0.0
733,B2094757D769A7FD449D,金馗腊汁肉白吉馍,长安区建设大街(沿西街口),115.22083,37.91796,311,快餐厅,0,0,餐饮,小吃快餐,1,0.0
734,B2094757D769A7FD459B,开菲尔酸奶吧 建设大街店,建设大街(北人字街口),115.22083,37.91796,311,糕饼店,0,0,餐饮,甜点饮品,1,0.0
735,B2094757D76AA3FE459A,永和炸酱面大王,桥东区建设大街与东风路交叉口向北100米路东,115.22083,37.91796,311,快餐厅,0,0,餐饮,小吃快餐,1,0.0
736,B2094757D76AA3F44592,女人星土豆粉 建设大街店,长安区建设大街(四中路口),115.22083,37.91796,311,快餐厅,0,0,餐饮,小吃快餐,1,0.0
737,B2094757D76AA3F44993,北京果木烤鸭 建设大街店,长安区建设大街(槐中路口),115.22083,37.91796,311,北京菜,1,1,餐饮,中式餐饮,1,0.0
738,B2094757D76AA7FF4699,高丽王朝韩国烤肉,近郊辛集方碑大街88号(近电视塔),115.21098,37.93182,311,韩国料理,0,0,餐饮,国际餐饮,1,299.2885239987816
739,B2094757D76AA6F8459C,沙县小吃,建设大街四水厂路(近胸科医院),115.2161471,37.9180623,311,特色／地方风味餐厅,0,0,餐饮,中式餐饮,1,0.0
740,B2094757D76AA6FB409D,阿莉莎蛋糕店 建设店,桥东区建设大街(槐安路口),115.21614,37.91806,311,甜品店,0,0,餐饮,甜点饮品,1,0.0
741,B2094757D76BA2FA4199,老槐树饭店,建设大街(槐安路口),115.22083,37.91796,311,中餐厅,0,0,餐饮,中式餐饮,1,0.0
742,B2094757D76BA1FE449B,国兴卤煮小公鸡,桥东区建设大街(石坊路口),115.22083,37.91796,311,清真餐馆,0,0,餐饮,中式餐饮,1,0.0
743,B2094757D76BA6FC479D,老汤烩面,长安区建设大街(北人字街口),115.22083,37.91796,311,快餐厅,0,0,餐饮,小吃快餐,1,0.0
744,B2094757D76BA6FD489E,思丝念缕,长安区建设大街(圆明路口),115.22083,37.91796,311,快餐厅,0,0,餐饮,小吃快餐,1,0.0
745,B2094757D76BA5FC489B,驴肉火烧,建设大街南二环(近华北五金城),115.2161471,37.9180623,311,特色／地方风味餐厅,0,0,餐饮,中式餐饮,1,0.0
746,B2094757D76BAAF8449B,东湖雪乡兔,长安区建设大街(四中路口),115.22083,37.91796,311,快餐厅,0,0,餐饮,小吃快餐,1,0.0
747,B2094757D76BAAFB419D,思蜜客,裕华区东岗路(近大石门),115.22083,37.91796,311,快餐厅,0,0,餐饮,小吃快餐,1,0.0
748,B2094757D76BAAFB459B,米皮店,桥东区建设大街(槐北路口),115.22083,37.91796,311,特色／地方风味餐厅,0,0,餐饮,中式餐饮,1,0.0
749,B2094757D764A7F84199,宴乐园,近郊辛集市兴华南路13号(近便宜坊超市),115.21662,37.91684,311,河北菜,0,0,餐饮,中式餐饮,1,76.09979400257282
750,B2094757D764A7F8419C,鹿华饭店,近郊辛集市兴华南路51号(近市政街),115.21656,37.91247,311,四川菜,0,0,餐饮,中式餐饮,1,36.631279953964274
751,B2094757D765A1F5419F,欧伯伦,长安区建设大街,115.22083,37.91796,311,西餐厅,0,0,餐饮,国际餐饮,1,0.0
752,B2094757D765A1F5429A,莱茵咖啡厅,长安区建设大街燕春饭店3楼(中山路口),115.22083,37.91796,311,咖啡厅,0,0,餐饮,甜点饮品,1,0.0
753,B2094757D765A0FC4593,皮革城东北小菜馆,近郊辛集市皮革城(近芙蓉岛),115.21635,37.93801,311,东北菜,0,0,餐饮,中式餐饮,1,41.20533687381493
754,B2094757D765A0FC489F,大盘鸡,长安区建设大街,115.22083,37.91796,311,清真餐馆,0,0,餐饮,中式餐饮,1,0.0
755,B2094757D765A0FD419A,川乡菜,长安区建设大街(四中路口),115.22083,37.91796,311,四川菜,0,0,餐饮,中式餐饮,1,0.0
756,B2094757D765A5FA429D,海峡渔港重庆烤全鱼活鱼火锅城,建设大街(槐安路口南侧路东),115.2161471,37.9180623,311,火锅店,0,0,餐饮,中式餐饮,1,0.0
757,B2094757D765A5FB439B,永和大王,辛集市,115.217962,37.943268,311,快餐厅,0,0,餐饮,小吃快餐,1,0.0
758,B2094656D364A0FD4098,新疆伊犁河快餐,,115.22534,37.91774,311,中餐厅,0,0,餐饮,中式餐饮,1,49.26031156289566
759,B2094656D364A0FC409B,全聚来饭庄,,115.21128,37.92717,311,中餐厅,5,0,餐饮,中式餐饮,1,215.76474421926974
760,B2094656D364A0FC4199,惠宾酒楼,,115.21365,37.92665,311,综合酒楼,0,0,餐饮,中式餐饮,1,215.76474421926974
761,B2094656D364A1F5429D,小肥羊辛集分店,,115.21521,37.94104,311,火锅店,0,0,餐饮,中式餐饮,1,0.0
762,B2094656D364A1F54598,随心阁饺子馆,,115.21095,37.93809,311,特色／地方风味餐厅,0,0,餐饮,中式餐饮,1,51.7530072119046
763,B2094656D364A1F5459E,四季涮肉,,115.21154,37.9381,311,火锅店,0,0,餐饮,中式餐饮,1,51.7530072119046
764,B2094656D364A1F5489A,金都火锅城,,115.21461,37.93154,311,火锅店,0,0,餐饮,中式餐饮,1,60.19024801773559
765,B2094656D364A0F9439E,兰州兄弟牛肉面馆,,115.21588,37.91068,311,中餐厅,0,0,餐饮,中式餐饮,1,38.85635620070416
766,B2094656D364A0F9459A,肉饼王饭店,,115.21586,37.9081,311,中餐厅,0,0,餐饮,中式餐饮,1,61.564946357715485
767,B2094656D364A0F94593,迎宾小吃城,,115.21585,37.90722,311,快餐厅,0,0,餐饮,小吃快餐,1,76.2349530053496
768,B2094656D364A0FE429D,东北山庄餐馆,,115.21579,37.94048,311,东北菜,0,0,餐饮,中式餐饮,1,54.59831043773379
769,B2094656D364A0FD4293,香林轩饭店,,115.22923,37.91805,311,中餐厅,0,0,餐饮,中式餐饮,1,109.65078024082595
770,B2094656D364A0FD439D,聚香坊火锅,,115.22245,37.91812,311,火锅店,0,0,餐饮,中式餐饮,1,19.58470225830547
771,B2094656D364A0FD459C,喜来登蛋糕,,115.21634,37.91857,311,糕饼店,0,0,餐饮,甜点饮品,1,44.24760696692388
772,B2094656D364A0F9479F,经惠大众小吃城,,115.21632,37.91064,311,快餐厅,0,0,餐饮,小吃快餐,1,38.85635620070416
773,B2094656D364A0F9499B,董家烧麦馆,,115.21634,37.91275,311,中餐厅,0,0,餐饮,中式餐饮,1,36.631279953964274
774,B2094656D364A0F94992,百乐园传统火锅,,115.21636,37.91374,311,火锅店,0,0,餐饮,中式餐饮,1,6.246793854443203
775,B2094656D364A0FE439B,泰和大馅水饺,,115.21917,37.94275,311,特色／地方风味餐厅,0,0,餐饮,中式餐饮,1,52.0846205271916
776,B2094656D364A0FE439F,绿色涮园辛集店,,115.21667,37.94311,311,火锅店,0,0,餐饮,中式餐饮,1,14.90742381792762
777,B2094656D364A0FE439C,温州饭庄,,115.2165,37.94311,311,中餐厅,0,0,餐饮,中式餐饮,1,14.90742381569638
778,B2094656D364A0FE4392,顺风肥牛(市府大街),,115.21612,37.94311,311,火锅店,0,0,餐饮,中式餐饮,1,18.415052949587565
779,B2094757D46BAAFC4399,荷花草堂美食小院,石桐路(近女子监狱),114.4202405,37.9874419,311,中餐厅,37,9,餐饮,中式餐饮,0,497.3820354314694
780,B2094656D368A5FA4393,高升饭店,,114.31716,38.07914,311,中餐厅,1,0,餐饮,中式餐饮,0,94.3886106154553
781,B2094450D76EA3F5449D,流年·,河北省 石家庄市 海悦,114.40485,38.04365,311,餐饮美食,1,1,餐饮,其它,0,156.23103308343525
782,B2094450D76DA1FB479A,万圣节,河北省 石家庄市 石家庄鹿泉,114.34815,38.05408,311,餐饮美食,1,1,餐饮,其它,0,1623.049266363993
783,B2094656D368A5FA489C,重庆巴奴火锅,近郊鹿泉市向阳大街(近鹿泉商厦),114.31655,38.07984,311,火锅店,23,4,餐饮,中式餐饮,0,94.3886106154553
784,B2094656D368A5FB419C,祥和小吃,,114.31398,38.07552,311,快餐厅,2,0,餐饮,小吃快餐,0,217.08343457187658
785,B2094757D16AA5F4479B,川蜀之味（新百店）,石家庄中山西路北国电器新百店负一层,114.410400391,38.0405197144,311,餐饮美食,5,1,餐饮,其它,0,22.549896655886428
786,B2094454D16FA3FC439E,午后咖啡,河北省 石家庄市 石家庄桥西区长兴街,114.40622,38.04455,311,餐饮美食,0,0,餐饮,其它,0,156.23103308343525
787,B2094457D06AAAFE409F,济南,河北省 石家庄市 芙蓉街,114.42368,37.991,311,餐饮美食,0,0,餐饮,其它,0,287.7568389003376
788,B2094456D06BA1FE4498,海南,河北省 石家庄市 亚龙湾,114.32278,38.0571,311,餐饮美食,0,0,餐饮,其它,0,1905.9497521800517
789,B209475CD06DA5F94898,向阳屯,鹿泉市京赞公路(近机械化步兵学院),114.37749,38.03817,311,中餐厅,1,1,餐饮,中式餐饮,0,525.7391357718166
790,B209475CD06CA5F9429C,庄上人家酒楼,中山西路958号,114.38964,38.03808,311,湖南菜,1,0,餐饮,中式餐饮,0,920.3864237383076
791,B2094753D36CA2F94892,卡玛西饼店,建设北大街250号,114.365548,38.049044,311,甜品店,0,0,餐饮,甜点饮品,0,611.1598388342994
792,B2094753D36CA6F84499,一碗香麻辣烫,长兴街西王市场,114.40813,38.043529,311,快餐厅,0,0,餐饮,小吃快餐,0,30.74087406389675
793,B2094753D36CA6F84598,川渡麻辣香锅,长兴街西王市场A3商铺,114.407958,38.043288,311,火锅店,0,0,餐饮,中式餐饮,0,30.74087406389675
794,B2094753D36CA4FC479A,中国点心,昌盛大街敬业大厦对面,114.371373,38.067809,311,糕饼店,0,0,餐饮,甜点饮品,0,445.37092472280773
795,B2094753D36DA2F8419D,湘菜王,昌盛大街1号,114.371309,38.063804,311,湖南菜,0,0,餐饮,中式餐饮,0,445.37092472280773
796,B2094753D36EA3F5479C,一茶一坐(新百店),中山西路139号连廊三层,114.365476,38.043548,311,茶艺馆,0,0,餐饮,甜点饮品,0,611.1598388342994
797,B2094751DB69A0FD469E,魔锅坊麻辣香锅(西王店),桥西区长兴街西王标准化市场内(近1路车西王站),114.4091,38.04017,311,四川菜,0,0,餐饮,中式餐饮,0,120.33736506896277
798,B2094751DB69A6FB4792,蒸碗,桥西区槐安西路苑东街西侧(近怡中苑),114.4184,38.02924,311,快餐厅,0,0,餐饮,小吃快餐,0,109.18488286915667
799,B2094751DB6AA4F5449C,福山居农家乐,近郊鹿泉市上寨乡梁庄村山前大道(近槐安路),114.2977,38.05627,311,东北菜,0,0,餐饮,中式餐饮,0,2197.8186898559497
800,B2094751DB6BA0FE429E,全家福美食,近郊鹿泉市昌盛大街(信息产业园对面),114.37133,38.05875,311,河北菜,1,1,餐饮,中式餐饮,0,561.9821666860952
801,B2094751DB6BA6F4449F,多喜爱(裕华路店),桥西区裕华路(近维明大街),114.3784,37.96938,311,甜品店,0,0,餐饮,甜点饮品,0,408.70867613291347
802,B2094751DB64A0FC489D,云南生态石锅鱼,桥西区裕华路(时光街北侧),114.38227,37.97143,311,火锅店,1,1,餐饮,中式餐饮,0,0.0
803,B2094751DB64A4FA499C,味增骨汤拉面,桥西区小谈村惠友超市1楼,114.418,38.03017,311,餐饮美食,1,0,餐饮,其它,0,109.18488286915667
804,B2094751DB64ABF9469C,雀巢冰淇淋(石林超市店),桥西区裕华路(近西二环),114.38227,37.97143,311,甜品店,0,0,餐饮,甜点饮品,0,0.0
805,B2094751DB64AAF8409E,洛杉奇蛋糕(龙泉店),新华区龙泉花园西区门脸,114.3818,38.00848,311,甜品店,0,0,餐饮,甜点饮品,0,820.0576701393046
806,B2094751DB65A0FA439D,建忠活鱼烧烤,长安区裕华路(体育大街口西侧),114.38227,37.97143,311,烧烤,0,0,餐饮,中式餐饮,0,0.0
807,B2094752D26CA1FD4999,小公牛域顺牛骨,桥西区裕华路(南小街北侧),114.38227,37.97143,311,河北菜,0,0,餐饮,中式餐饮,0,0.0
808,B2094752D26CA0F44799,荣晓居,桥西区石通路永壁永兴花园小区(近红旗大街),114.42694,37.99131,311,四川菜,0,0,餐饮,中式餐饮,0,287.7568389003376
809,B2094752D26CA5FC409F,新特老排骨,近郊鹿泉市会馆路,114.34087,38.0783,311,东北菜,0,0,餐饮,中式餐饮,0,0.0
810,B2094752D26DA3FC4398,侯氏涮园(鹿泉店),近郊鹿泉市龙泉东路(近鹿泉车站),114.33447,38.07156,311,火锅店,2,0,餐饮,中式餐饮,0,152.69346451311645
811,B2094751DB6DA3FD439E,珍味苑,近郊鹿泉市上庄镇韩庄龙泉寺内,114.33554,38.00389,311,河北菜,1,0,餐饮,中式餐饮,0,3272.70137597892
812,B2094751D369A7F4439C,万兴楼饺子(鹿泉龙泉路店),近郊鹿泉市龙泉路(人民法院对面),114.3331,38.07241,311,东北菜,11,2,餐饮,中式餐饮,0,152.69346451311645
813,B2094751D36AA2FF489D,龙泉山庄旅游渡假村中餐厅,近郊鹿泉龙泉寺旅游区内(近龙泉寺终点站),114.34087,38.0783,311,河北菜,3,0,餐饮,中式餐饮,0,0.0
814,B2094450D069A5F8489B,石家庄•海悦天地,河北省 石家庄市 河北省石家庄市,114.37713,38.06497,311,餐饮美食,3,2,餐饮,其它,0,525.8387418711667
815,B2094656D368A5FA419F,成都小吃(龙泉路),,114.324,38.07538,311,快餐厅,0,0,餐饮,小吃快餐,0,224.182805058991
816,B2094656D368A5FA429A,小小涮锅店,,114.32144,38.07544,311,火锅店,0,0,餐饮,中式餐饮,0,160.5618895786602
817,B2094656D368A5FA4293,六合居(龙泉路),,114.31891,38.0755,311,综合酒楼,0,0,餐饮,中式餐饮,0,67.63565160098123
818,B2094656D368A5FB409D,豫皖家园,,114.31695,38.07778,311,中餐厅,0,0,餐饮,中式餐饮,0,152.3380949676856
819,B2094656D368A5FB4198,人和小吃,,114.31646,38.07551,311,快餐厅,0,0,餐饮,小吃快餐,0,214.45752392437637
820,B2094757D46AA6FD4598,福泽港粤茶餐厅,裕华路116号福泽商务快捷酒店内(近北国超市),114.3822761,37.971439,311,广东菜,0,0,餐饮,中式餐饮,0,0.0
821,B2094757D46AA6F94899,张生粥记,裕华区裕华路(体育大街口),114.38227,37.97143,311,快餐厅,0,0,餐饮,小吃快餐,0,0.0
822,B2094757D46AA6FA4699,摩提工房 中山西路店,桥西区中山西路845号北国西兴超市内,114.41036,38.04072,311,甜品店,0,0,餐饮,甜点饮品,0,22.549896655886428
823,B2094757D46AAAF84492,腾飞饭店,桥西区中山西路(近吉恒街),114.39925,38.03473,311,快餐厅,0,0,餐饮,小吃快餐,0,920.3864237383076
824,B2094757D46AAAF8459E,品香源牛肉米线,桥西区红旗南大街556号(石家庄法商职业学院对面),114.37244,38.00846,311,快餐厅,0,0,餐饮,小吃快餐,0,820.0576701393046
825,B2094757D46BA6FA4498,百富祥,裕华区裕华路(煤机街口),114.38227,37.97143,311,甜品店,0,0,餐饮,甜点饮品,0,0.0
826,B2094757D56FA5F4439E,崔记美食源,中国河北省鹿泉市海山大街,114.32950331,38.08020643,311,中餐厅,0,0,餐饮,中式餐饮,0,27.090077415449965
827,B2094757D769A7FD4299,珍味苑,鹿泉市上庄镇韩庄龙泉寺内,114.379113,38.033618,311,中餐厅,0,0,餐饮,中式餐饮,0,525.7391357718166
828,B2094757D76AA7FE479E,燕春楼饭店,近郊龙泉路29号(近向阳街),114.31962,38.07526,311,北京菜,1,0,餐饮,中式餐饮,0,67.63565160098123
829,B2094757D76AA6F94598,麦客西点,裕华路棉七宿舍附近(近大径街),114.3822761,37.971439,311,糕饼店,0,0,餐饮,甜点饮品,0,0.0
830,B2094757D76BA5FD459D,雪村清真烧烤涮,裕华路民心河边(近嘉实蓝岸),114.3822761,37.971439,311,烧烤,0,0,餐饮,中式餐饮,0,0.0
831,B2094757D76BAAFB459F,七真黄牛豆捞,裕华路(友谊大街口),114.3822761,37.971439,311,火锅店,0,0,餐饮,中式餐饮,0,0.0
832,B2094757D76BAAFB4592,KC炸鸡 裕华路店,裕华路(建设大街口),114.3822761,37.971439,311,特色／地方风味餐厅,0,0,餐饮,中式餐饮,0,0.0
833,B2094757D765A5FA439F,林海菌庄火锅,裕华路(大经街口西侧),114.3822761,37.971439,311,火锅店,0,0,餐饮,中式餐饮,0,0.0
834,B2094656D365A2FB4499,福盛园饭店,,114.412,38.0391,311,中餐厅,0,0,餐饮,中式餐饮,0,211.0580123937649
835,B2094457D36EA5F9459B,滨河花园小区,河北省 石家庄市 晋州市滨河街,115.05821,38.02032,311,餐饮美食,2,1,餐饮,其它,1,453.09120929253703
836,B209475CD068A2F9469C,重庆德庄,辛集市市府街23号,115.04126,38.0332,311,火锅店,0,0,餐饮,中式餐饮,1,249.41380527048588
837,B209475CD06DA4F94392,巴乡石锅鱼,晋州市朝阳路(县医院东侧路南),115.03554,38.03104,311,火锅店,0,0,餐饮,中式餐饮,1,91.44684910840175
838,B209475CD06DA4F94992,最高鸡密 晋州店,晋州市中兴路13号新世纪商城蔓诺商厦,115.06627,38.02103,311,快餐厅,0,0,餐饮,小吃快餐,1,549.7518945701526
839,B209475CD06EA5FF4298,于家庄饭店,晋州市滨河路(近小天鹅宾馆),115.03672,38.02309,311,河北菜,0,0,餐饮,中式餐饮,1,298.8739324778898
840,B209475CD36AA4FF4292,顺风肥牛,辛集市市府大街,115.0440978,38.0334557,311,火锅店,0,0,餐饮,中式餐饮,1,0.0
841,B209475CD368A3F8479D,重庆巴奴火锅,辛集市市府街,115.0440978,38.0334557,311,火锅店,0,0,餐饮,中式餐饮,1,0.0
842,B209475CD369A2FA459C,永和豆浆 辛集市店,辛集市市府街中段,115.0440978,38.0334557,311,特色／地方风味餐厅,1,1,餐饮,中式餐饮,1,0.0
843,B2094751DB6BA2FC4299,仟芝御品,龙岗区坪山新区中兴路78号,115.059165,38.024883,311,甜品店,0,0,餐饮,甜点饮品,1,42.60792006267437
844,B2094757D56FAAFF429C,祖传张饸饹馆,中国河北省晋州市,115.03759359,38.03611003,311,中餐厅,0,0,餐饮,中式餐饮,1,455.867880341563
845,B2094757D76EABFF429F,片片鱼冷火锅,近郊辛集市市府街中段市府花园C-2号,115.04409,38.03345,311,火锅店,0,0,餐饮,中式餐饮,1,0.0
846,B2094757D768A6F94799,便民食品餐厅,新华区朝阳路(友谊大街口),115.03465,38.03147,311,快餐厅,0,0,餐饮,小吃快餐,1,0.0
847,B2094757D768A6FA4193,朝阳路烧烤,新华区朝阳路(电大街口),115.03465,38.03147,311,烧烤,0,0,餐饮,中式餐饮,1,0.0
848,B2094757D76AA3F5429A,慧和火锅城,晋州县滨河街45号,115.044147,38.033682,311,火锅店,0,0,餐饮,中式餐饮,1,25.529695683693877
849,B2094757D76BA1FD4892,四川酒家,近郊晋州市世纪商城(近农行),115.0409,37.99467,311,四川菜,0,0,餐饮,中式餐饮,1,3022.7754491529968
850,B2094757D76BAAFB409A,川香情,近郊辛集市市府街中段(近市政府),115.04409,38.03345,311,四川菜,0,0,餐饮,中式餐饮,1,0.0
851,B2094757D765A5FA409C,香沅桥云南过桥米线,近郊晋州市中兴路新世纪商城1楼,115.04029,38.02566,311,快餐厅,0,0,餐饮,小吃快餐,1,51.67984938411101
852,B2094656D365A3FC4398,宏达驴肉馆,,115.09237,38.01019,311,特色／地方风味餐厅,0,0,餐饮,中式餐饮,1,2584.7267484375275
853,B2094656D364A1F8499F,新重庆火锅城,,115.05509,38.02357,311,火锅店,20,5,餐饮,中式餐饮,1,157.34704507844816
854,B2094656D364A1FA459F,依沙贝尔蛋糕世界,,115.0372,38.02826,311,糕饼店,29,5,餐饮,甜点饮品,1,105.71172974609273
855,B2094757D56EABF5449D,沃尔旺食府,中国河北省晋州市X004,115.05059353,38.03634549,311,综合酒楼,26,3,餐饮,中式餐饮,1,637.5579336712162
856,B2094757D76AA7FF449A,万家香,马于镇东赵村,115.127999,37.971209,311,餐饮美食,12,2,餐饮,其它,1,5341.966696213975
857,B2094656D365A3FD4793,老保定食府(晋州市供销合作社联合社东),中兴路468,115.03198,38.0263,311,中餐厅,12,0,餐饮,中式餐饮,1,13.138704722733117
858,B2094656D365A1F9459C,奇香原铁锅炖鱼,向阳街43,115.04451,38.02454,311,中餐厅,5,1,餐饮,中式餐饮,1,40.11633315664035
859,B2094757D76EABFA489E,白天鹅大酒店中餐厅,新华区朝阳路与友谊北大街交叉口东南角(近钟家庄公交站台),115.03465,38.03147,311,河北菜,15,0,餐饮,中式餐饮,1,0.0
860,B2094656D365A2FD469E,百姓放心包子厅第六加盟店,中兴路705,115.03118,38.02598,311,餐饮美食,24,14,餐饮,其它,1,59.72824227984201
861,B2094656D365A1F9459F,吉祥馄饨(富康楼东),中兴路671,115.03404,38.02584,311,中餐厅,5,0,餐饮,中式餐饮,1,102.71124886502547
862,B2094656D365A7F9429F,弯里来精品糕点(晋州市发展改革局东),,115.03514,38.02616,311,糕饼店,7,0,餐饮,甜点饮品,1,25.1478994610458
863,B2094656D364A1F94193,老保定美食城晋州第一分店,,115.05918,38.0245,311,中餐厅,1,0,餐饮,中式餐饮,1,18.428215076578297
864,B2094656D364ABFA449A,新疆大盘鸡专卖,中兴路458,115.0325,38.02627,311,餐饮美食,5,0,餐饮,其它,1,45.66951247957958
865,B2094450D66DABF44199,状元楼川味食府,晋州滨河街西段542号,115.0305,38.02059,311,餐饮美食,0,0,餐饮,其它,1,393.1682614274685
866,B2094450D66DABFB4592,壮元楼川味食府,河北省 石家庄市 滨河街西段542号,115.02941,38.02402,311,餐饮美食,1,0,餐饮,其它,1,223.55292187262694
867,B2094457D16AA1F54598,海里捞,河北省 石家庄市 晋州,115.06703,38.03768,311,餐饮美食,0,0,餐饮,其它,1,1447.1106102063588
868,B2094656D365A7FD4793,蜂蜜小面包(晋州市人民法院西),中兴路177,115.05622,38.02467,311,糕饼店,0,0,餐饮,甜点饮品,1,24.551322915846466
869,B2094656D365A7F44699,新疆大盘鸡专卖店二店,中兴路699,115.03186,38.02594,311,餐饮美食,0,0,餐饮,其它,1,40.116329022583095
870,B2094656D365A2F94699,合力快餐,东胜街82,115.05044,38.02568,311,中餐厅,0,0,餐饮,中式餐饮,1,104.26742053414655
871,B2094656D365A2FA4992,韩国烧烤,中兴路521,115.03972,38.02554,311,韩国料理,1,0,餐饮,国际餐饮,1,51.67984938411101
872,B2094656D365A1FC489B,怪味合焖锅涮锅晋州店,,115.03183,38.0263,311,火锅店,0,0,餐饮,中式餐饮,1,13.138704722733117
873,B2094656D365A5F9429A,牛庄馅饼,中兴路733,115.02989,38.02603,311,餐饮美食,0,0,餐饮,其它,1,19.30222740419104
874,B2094656D365A0F8489D,孔氏啤酒鸭,,115.02967,38.02602,311,中餐厅,0,0,餐饮,中式餐饮,1,19.30222740419104
875,B2094656D365A0FB4693,温州一品香熟食店,和平街120,115.05506,38.0257,311,餐饮美食,0,0,餐饮,其它,1,119.00758594820329
876,B2094656D364A1F84899,康珍酒楼,向阳街37,115.04454,38.02418,311,综合酒楼,0,0,餐饮,中式餐饮,1,40.11633315664035
877,B2094656D364A1F84892,金利来食品店,中兴路331,115.04957,38.02504,311,糕饼店,0,0,餐饮,甜点饮品,1,104.26742053414655
878,B2094656D364A1F94198,温州透骨香熟食城,中兴路167,115.0565,38.02466,311,餐饮美食,0,0,餐饮,其它,1,24.551322915846466
879,B2094656D364A1F9419D,德隆蛋糕屋,,115.05897,38.02451,311,糕饼店,0,0,餐饮,甜点饮品,1,18.428215076578297
880,B2094656D364A1F84598,兰州正宗牛肉拉面(光明路),,115.03359,38.02416,311,中餐厅,0,0,餐饮,中式餐饮,1,190.92071276797873
881,B2094656D364A1FA4493,满天香蛋糕面包世界,,115.03789,38.02904,311,糕饼店,0,0,餐饮,甜点饮品,1,105.71172974609273
882,B2094656D364A1FA4698,佳佳西饼屋总店,,115.03542,38.02621,311,糕饼店,0,0,餐饮,甜点饮品,1,25.1478994610458
883,B2094656D364A1F9449E,广德源(中兴街),,115.06218,38.02478,311,综合酒楼,0,0,餐饮,中式餐饮,1,264.3414873365612
884,B2094656D364A1F94999,真味居烧麦,,115.05503,38.02719,311,特色／地方风味餐厅,0,0,餐饮,中式餐饮,1,37.84683966151146
885,B2094656D364A1F9499F,百味饺子城,,115.05505,38.02685,311,特色／地方风味餐厅,0,0,餐饮,中式餐饮,1,9.066446442467068
886,B2094656D364A1F9499C,四季青涮肉晋州加盟店,,115.05503,38.02677,311,火锅店,0,0,餐饮,中式餐饮,1,9.066446442467068
887,B2094751D564A1F94992,蜜菓学府路店,河北经贸大学对过,114.488925,38.129433,311,餐饮美食,5,3,餐饮,其它,0,521.367836284272
888,B2094757D765A5F84898,派乐汉堡店,新华区学府路112号,114.48623,38.1355,311,西餐厅,32,9,餐饮,国际餐饮,0,39.17171505998914
889,B2094656D364A5FB469F,挂炉烤鸡,,114.4382,38.10148,311,餐饮美食,1,0,餐饮,其它,0,490.26806985078576
890,B2094757D56FA0FA4492,河北经贸大学第一餐厅,中国河北省石家庄市区,114.48704943,38.13631809,311,中餐厅,3904,1472,餐饮,中式餐饮,0,115.80719468057796
891,B2094757D56FA3FC499B,河北经贸大学第六餐厅(书苑路),中国河北省石家庄市区书苑路,114.495,38.1363,311,中餐厅,327,80,餐饮,中式餐饮,0,285.283375471485
892,B2094757D66EA3FC4599,河传北院一食堂,石家庄新华区学府路196号,114.45800498,38.152049861,311,餐饮美食,53,24,餐饮,其它,0,42.64969969082041
893,B2094656D368A0FB489C,天平美食苑,学府路41号,114.50032,38.12855,311,中餐厅,33,17,餐饮,中式餐饮,0,80.50217694605547
894,B2094656D368A7FB4592,(石家庄服务区)餐厅,,114.47636,38.10987,311,中餐厅,6,2,餐饮,中式餐饮,0,174.17748765655867
895,B2094450D66EA4F44399,省博物馆,河北省 石家庄市 省博物馆,114.50118,38.12407,311,餐饮美食,2,2,餐饮,其它,0,36.435131957374814
896,B2094450D66CA6FB4798,恋之味,河北省 石家庄市 五七路河北经贸大学新塑料操场,114.49026,38.13653,311,餐饮美食,1,1,餐饮,其它,0,281.78193770150955
897,B2094450D16BA0F5419A,好吃的好吃的,河北省 石家庄市 在你心里,114.46683,38.14048,311,餐饮美食,1,1,餐饮,其它,0,496.48238671957745
898,B2094450D16AA7FD499C,北京,河北省 石家庄市 海淀区海淀中路,114.4618,38.13841,311,餐饮美食,1,1,餐饮,其它,0,496.48238671957745
899,B2094456D06AA3F94792,林语堂,河北省 石家庄市 石家庄北外环,114.42121,38.10569,311,餐饮美食,1,1,餐饮,其它,0,1435.2897562198439
900,B2094455DA64A5FF4992,玛索,河北省 石家庄市 北国商城,114.49889,38.12868,311,餐饮美食,1,1,餐饮,其它,0,15.786900863522401
901,B2094450D06FABFD469F,自由女神西餐厅,河北省 石家庄市 学府路,114.49645,38.12892,311,餐饮美食,2,2,餐饮,其它,0,124.09987287426736
902,B209475CD068ABFF459D,嘉禾一品粥 新火车站店,中华南大街石家庄新火车站内,114.51893,38.20087,311,快餐厅,87,14,餐饮,小吃快餐,2,0.43691127783548456
903,B209475CD069A4F4479E,鼎香土豆粉,正定县华安西路食品城美食街1117号(近好韵宫),114.50837,38.17494,311,特色／地方风味餐厅,0,0,餐饮,中式餐饮,0,3023.1099244505103
904,B209475CD364A4FD4398,烧烤大师半成品外卖,太平河沿岸自助烧烤,114.50161,38.11372,311,烧烤,0,0,餐饮,中式餐饮,0,160.389023428395
905,B209475CD36FA7FC4498,鸿运饭店,河北传媒学院对面,114.45794,38.15243,311,四川菜,0,0,餐饮,中式餐饮,0,42.64969969082041
906,B209475CD36FA7FF429E,蓉妈夫妻肺片,红星街(近军械学院),114.50342,38.12244,311,特色／地方风味餐厅,0,0,餐饮,中式餐饮,0,239.2018973244309
907,B209475CD36FA6FC4399,天府美食城,革新街186-1号(新华路口南侧),114.4471,38.11114,311,特色／地方风味餐厅,0,0,餐饮,中式餐饮,0,0.0
908,B209475CD36FA3FF4399,田园烧烤,储煤路,114.4471,38.11114,311,特色／地方风味餐厅,0,0,餐饮,中式餐饮,0,0.0
909,B2094753D76AA6FB459F,阳光西点(中华店),石家庄市桥西区中华大街(自强路口南行100米路西),114.474425,38.11232,311,甜品店,0,0,餐饮,甜点饮品,0,182.6725552610009
910,B2094753D76AA5F84792,香膳坊酒家,石家庄市桥东区栗中路中基礼域19号楼2号商铺(中基礼域小区南门东侧),114.518935,38.20087,311,四川菜,0,0,餐饮,中式餐饮,2,0.43691127783548456
911,B2094450D16EA0F8469C,牛闪闪的贾斯汀比伯,河北省 石家庄市 牛闪闪的贾斯汀比伯,114.47015,38.11179,311,餐饮美食,0,0,餐饮,其它,0,213.31817139756262
912,B2094450D064AAF8469C,自由女神咖啡,河北省 石家庄市 河北石家庄新华区学府路河北经贸大学东,114.49892,38.12854,311,餐饮美食,3,3,餐饮,其它,0,15.786900863522401
913,B2094450D064A2F8479E,艾巴克,河北省 石家庄市 赵陵铺,114.47167,38.11029,311,餐饮美食,0,0,餐饮,其它,0,213.31817139756262
914,B2094753D66EABF44393,御茶奶茶店,五七路经贸大学东门西行20米,114.501595,38.124042,311,冷饮店,0,0,餐饮,甜点饮品,0,36.435131957374814
915,B2094753D66FA2FD409B,咀香园蛋糕五七路店,五七路经贸大学对面,114.495852,38.129958,311,糕饼店,0,0,餐饮,甜点饮品,0,4.0282225901146615
916,B2094753D66FA5FB4398,得一庄奶茶店,118路车终点对面,114.511884,38.122599,311,冷饮店,0,0,餐饮,甜点饮品,0,345.23603088144665
917,B2094753D265A2F94198,茶物语奶茶专家,五七路经贸大学东门外30米路西,114.506369,38.123191,311,冷饮店,1,0,餐饮,甜点饮品,0,142.74524472828622
918,B2094753D265A4FA4398,鸿福苑饭店,学府路经贸大学西行50米路南,114.495605,38.130043,311,四川菜,0,0,餐饮,中式餐饮,0,23.58140494442419
919,B2094753D36DA7FA4799,新奇特蛋糕屋,学府路经贸大学对面,114.495833,38.129925,311,糕饼店,0,0,餐饮,甜点饮品,0,4.0282225901146615
920,B2094753D36DA7FA499B,一品香蛋糕房,河北经贸大学东门西行20米路西,114.493946,38.13196,311,糕饼店,0,0,餐饮,甜点饮品,0,119.14754002378302
921,B2094753D36DA7FB4198,尚岸渔酒家,五七路临近经贸大学,114.498322,38.121597,311,中餐厅,3,2,餐饮,中式餐饮,0,371.6446472717923
922,B2094454D164A3FE4499,万达,河北省 石家庄市 石家庄,114.43,38.12516,311,餐饮美食,0,0,餐饮,其它,0,234.7843046666098
923,B2094454D16FA6FC4092,岔河八号,河北省 石家庄市 河北石家庄,114.50137,38.11515,311,餐饮美食,2,2,餐饮,其它,0,160.389023428395
924,B2094757D76AA2FE419F,翰林食府,学府路(近河北经贸大学),114.4505,38.15922,311,中餐厅,0,0,餐饮,中式餐饮,0,692.7409743310694
925,B2094757D76BA2FB439A,四川大盘鸡,桥东区学府路(近经贸大学),114.43743,38.17027,311,清真餐馆,0,0,餐饮,中式餐饮,0,1677.905879407735
926,B2094757D76BA7F54998,福建千里香馄饨 五七路店,近郊五七路(近外经贸学院),114.508,38.12315,311,特色／地方风味餐厅,0,0,餐饮,中式餐饮,0,142.74524472828622
927,B2094757D765A5F94293,赤壁赋,新华区学府路47号河北经贸大学内,114.486514,38.1352276,311,快餐厅,0,0,餐饮,小吃快餐,0,39.17171505998914
928,B2094752D26AA6FB4898,河北经贸大学咖啡书吧,河北省 石家庄市 学府路河北经贸大学校内晨光路,114.497082,38.134325,311,餐饮美食,110,104,餐饮,其它,0,285.283375471485
929,B2094751DB6EAAFE469B,富贵鱿鱼,新华区联防路(光明路口),114.4471,38.11114,311,烧烤,0,0,餐饮,中式餐饮,0,0.0
930,B2094751DB69A2FC4299,亲亲小镇,新华区西三庄大街(和平路口),114.45486,38.10231,311,四川菜,0,0,餐饮,中式餐饮,0,573.0196945680498
931,B2094751DB6AA5F44199,大团圆饺子馆,新华区学府路,114.488,38.13425,311,餐饮美食,0,0,餐饮,其它,0,169.43507998982864
932,B2094751DB6AAAFF469D,上京文化生态园,新华区上京村纳帕西谷附近,114.4299,38.12305,311,河北菜,1,1,餐饮,中式餐饮,0,234.7843046666098
933,B2094751DB65A6F8499D,渔夫烤鱼,桥西区前进街金正缔景城西门1049-1050号,114.51658,38.12419,311,湖南菜,19,0,餐饮,中式餐饮,0,0.0
934,B2094751DB65A5F44999,华容餐厅,近郊正定县曙光路89号,114.54185,38.16813,311,河北菜,0,0,餐饮,中式餐饮,0,1103.777994138298
935,B2094751DB65AAF54098,老诚记麻辣香锅,桥西区前进街金正帝景城西门对面,114.51658,38.12419,311,湖南菜,28,0,餐饮,中式餐饮,0,0.0
936,B2094752D26CA3FB489C,乐旗派绿豆酥,新华区银座商城东购店(今麦郎对面),114.4471,38.11114,311,甜品店,0,0,餐饮,甜点饮品,0,0.0
937,B2094752D26CA5F9419E,私人庄园,新华区京昆高速(近学府路),114.4471,38.11114,311,餐饮美食,0,0,餐饮,其它,0,0.0
938,B2094752D26DA4FC439E,李记食堂,经贸大学对过西行10米,114.49488,38.13118,311,四川菜,0,0,餐饮,中式餐饮,0,119.14754002378302
939,B2094752D26EA2FB409A,紫菜包饭,新华区警安路8号河北传媒学院北区一食堂内(近财经学院),114.44883,38.15313,311,韩国料理,0,0,餐饮,国际餐饮,0,692.7409743310694
940,B2094751DB6DA4FC4599,江湖翅客,新华区油厂胡同(近新丹兰),114.4471,38.11114,311,烧烤,0,0,餐饮,中式餐饮,0,0.0
941,B2094751D368A6FF419A,魔锅坊麻辣香锅(学府路店),近郊正定县学府路110号金桂园步行街,114.4994,38.12857,311,四川菜,0,0,餐饮,中式餐饮,0,42.117422120727525
942,B2094656D368A0FB489F,艺苑酒楼,,114.47445,38.10821,311,综合酒楼,0,0,餐饮,中式餐饮,0,248.99193336028702
943,B2094656D368A7F8459C,西北风饭店,,114.44379,38.10178,311,中餐厅,0,0,餐饮,中式餐饮,0,490.26806985078576
944,B2094450D06CAAF44299,石家庄逸美咖啡馆,河北省 石家庄市 石家庄槐安东路与谈固大街口东南角,114.70358,38.27909,311,餐饮美食,1,1,餐饮,其它,2,373.76281078173866
945,B209475DDA6CA2FB4698,石家庄南北食客餐饮管理有限公司,空港工业园新城大道888号,114.684069,38.279452,311,休闲餐饮场所,1,0,餐饮,其它,2,1074.8281559835523
946,B209475CD36AA0FD4493,宏伟饭店,赵县驿里街中段路东,114.77493,37.76189,311,河北菜,0,0,餐饮,中式餐饮,3,0.0
947,B2094656D364A7F84799,又一春美食城,,114.77635,37.76185,311,中餐厅,2,0,餐饮,中式餐饮,3,124.90653685239465
948,B2094656D364A7F8479F,三元福酒家,,114.77857,37.76197,311,中餐厅,2,0,餐饮,中式餐饮,3,21.21443110559544
949,B2094656D364A6FC449F,东港湾音乐茶座,,114.78914,37.74763,311,茶艺馆,48,18,餐饮,甜点饮品,3,7.000536215520221
950,B2094656D364A7F84593,回民食府,,114.76961,37.7615,311,清真餐馆,4,1,餐饮,中式餐饮,3,86.39330541171955
951,B2094656D364A7F8469F,老北京火锅(自强路),,114.7731,37.76169,311,火锅店,1,0,餐饮,中式餐饮,3,30.8476363100057
952,B2094656D364A7FA4692,方圆酒家,,114.78086,37.75352,311,中餐厅,2,1,餐饮,中式餐饮,3,82.0340486803449
953,B2094454D16DA6FC4293,杨麻子大饼,河北省 石家庄市 石家庄赵县自强路,114.76726,37.76358,311,餐饮美食,1,1,餐饮,其它,3,229.56550919348913
954,B2094757D768A6FC4499,赵县大碗面,近郊赵县石塔东路168号,114.776185,37.75643,311,快餐厅,0,0,餐饮,小吃快餐,3,0.0
955,B2094757D76AA2FC469E,百姓包子铺,近郊驿里街北头路(格力空调对面),114.77493,37.76189,311,快餐厅,0,0,餐饮,小吃快餐,3,0.0
956,B2094757D76AA6FA439F,柏林美食城,赵县南外环(柏林街口东南角),114.776185,37.75643,311,中餐厅,0,0,餐饮,中式餐饮,3,0.0
957,B2094757D765A0F8409A,胖仔米线 石塔路店,近郊石塔路(近柏林禅寺),114.7837,37.74744,311,快餐厅,0,0,餐饮,小吃快餐,3,38.69670279132538
958,B2094656D364A7F44392,上海啤酒烤鸭,,114.78314,37.75218,311,餐饮美食,6,3,餐饮,其它,3,63.60409111108183
959,B2094656D364A7F4499B,天津薄皮鲜饺馆,近郊赵县自强路(近子弟学校),114.78082,37.76252,311,特色／地方风味餐厅,1,0,餐饮,中式餐饮,3,12.506129542393575
960,B2094656D364A7F44998,东豪餐厅,,114.78037,37.7625,311,中餐厅,8,1,餐饮,中式餐饮,3,39.62007515274325
961,B2094656D364A7F4499F,明月轩酒家,自强路115,114.77833,37.7624,311,中餐厅,1,0,餐饮,中式餐饮,3,52.26150716123111
962,B2094656D364A7F54198,天源酒家,,114.77245,37.7621,311,中餐厅,3,0,餐饮,中式餐饮,3,73.0981147608385
963,B2094656D364A7F5429C,喜门饭庄,,114.76876,37.76189,311,综合酒楼,49,0,餐饮,中式餐饮,3,86.39330541171955
964,B2094656D364A7F8469D,天香苑饭店,,114.77345,37.76171,311,中餐厅,0,0,餐饮,中式餐饮,3,30.8476363100057
965,B2094656D364A7F8479C,泽龙餐馆,,114.77881,37.76199,311,中餐厅,0,0,餐饮,中式餐饮,3,21.21443110559544
966,B2094656D364A7F8489B,赵州小吃总部,,114.78087,37.76208,311,快餐厅,0,0,餐饮,小吃快餐,3,49.12279952075218
967,B2094656D364A7F8489F,开元砂锅王,,114.78324,37.76221,311,中餐厅,0,0,餐饮,中式餐饮,3,188.80662213494418
968,B2094656D06CA3FC409E,天同快餐,,114.78249,37.74988,311,中餐厅,0,0,餐饮,中式餐饮,3,0.8792081162799197
969,B2094656D364A7F9409B,鹏飞大酒楼,,114.78318,37.7571,311,综合酒楼,0,0,餐饮,中式餐饮,3,149.44897275538892
970,B2094656D364A7F9419C,春园饭店,,114.78271,37.75264,311,中餐厅,0,0,餐饮,中式餐饮,3,63.60409111108183
971,B2094656D364A7FA439E,西贝美食苑,,114.78571,37.75288,311,中餐厅,0,0,餐饮,中式餐饮,3,54.742464360323616
972,B2094656D364A7FA439C,龙发饭店,,114.78722,37.75281,311,中餐厅,0,0,餐饮,中式餐饮,3,38.74750314864561
973,B2094656D364A7FA4393,玉祥饭店,,114.78766,37.75279,311,中餐厅,0,0,餐饮,中式餐饮,3,38.74750314864561
974,B2094656D364A7FA4499,老朋友快餐,,114.78644,37.75321,311,中餐厅,0,0,餐饮,中式餐饮,3,73.92885096594577
975,B2094656D364A7FA4493,红日餐厅,,114.78533,37.75327,311,中餐厅,0,0,餐饮,中式餐饮,3,54.742464360323616
976,B2094656D364A7FA4592,茂源酒楼,,114.78323,37.75341,311,综合酒楼,0,0,餐饮,中式餐饮,3,61.46606979561877
977,B2094656D364A7FA4798,红星面包房,,114.77993,37.75358,311,糕饼店,0,0,餐饮,甜点饮品,3,82.0340486803449
978,B2094656D364A7F4449D,味多多,,114.7833,37.75396,311,糕饼店,0,0,餐饮,甜点饮品,3,61.46606979561877
979,B2094656D364A7F4459A,阳光快餐屋,,114.78337,37.75461,311,中餐厅,0,0,餐饮,中式餐饮,3,13.458741248176906
980,B2094656D364A7F4459B,丽坤小菜肉食店,,114.78339,37.75473,311,中餐厅,0,0,餐饮,中式餐饮,3,13.458741248176906
981,B2094656D364A7F4459E,红星饭店,,114.7835,37.75578,311,中餐厅,0,0,餐饮,中式餐饮,3,117.15448736744253
982,B2094656D364A7F4479F,青银酒家小吃,,114.78679,37.76283,311,快餐厅,0,0,餐饮,小吃快餐,3,241.7226073918455
983,B2094656D364A7F4489B,鹏静快餐店,,114.78427,37.7637,311,中餐厅,0,0,餐饮,中式餐饮,3,188.80662213494418
984,B2094656D364A7FB4599,天同快餐二店,,114.7712,37.7592,311,中餐厅,0,0,餐饮,中式餐饮,3,130.33842518306153
985,B2094656D364A6FC4392,老四美食,,114.78625,37.74689,311,中餐厅,0,0,餐饮,中式餐饮,3,109.67544413926058
986,B2094656D364A6FC449E,东港饭店,,114.78921,37.74766,311,综合酒楼,0,0,餐饮,中式餐饮,3,7.000536215520221
987,B2094656D364A6FC449D,东环饭店(赵县专家门诊部东),,114.78736,37.74734,311,中餐厅,0,0,餐饮,中式餐饮,3,109.67544413926058
988,B2094656D364A7F54992,惠特食府,,114.7825,37.74988,311,中餐厅,0,0,餐饮,中式餐饮,3,0.8792081162799197
989,B2094656D364A7F44893,茹意肉食店,,114.78105,37.76254,311,餐饮美食,0,0,餐饮,其它,3,7.9115190983041845
990,B2094656D364A7F4499A,八盆大食堂快餐,,114.78096,37.76254,311,中餐厅,0,0,餐饮,中式餐饮,3,7.9115190983041845
991,B2094656D364ABF44492,肯德炸鸡(平棘大街),,114.77052,37.75598,311,餐饮美食,0,0,餐饮,其它,3,40.57759842959133
992,B2094656D364ABF44493,米莎贝尔(永通路),,114.76979,37.75414,311,糕饼店,0,0,餐饮,甜点饮品,3,53.95960798887821
993,B2094656D364ABF4459A,东北风味小吃(永通路),,114.76467,37.7544,311,快餐厅,0,0,餐饮,小吃快餐,3,35.23643034738606
994,B2094656D364A6FE4399,聚胜涮园,,114.78292,37.74933,311,火锅店,0,0,餐饮,中式餐饮,3,71.44087501511073
995,B2094757D56FA2FB439F,比格比萨,中国河北省石家庄市区珠峰大街,114.60264323,38.0379994,311,快餐厅,42,30,餐饮,小吃快餐,0,84.0618827177477
996,B2094757D46BA6FA419B,聚香阁,裕华区闽江道(珠峰大街口西侧),114.60867,38.02843,311,四川菜,7,0,餐饮,中式餐饮,0,0.0
997,B2094757D56FA1FE499E,如意坊(总店),中国河北省石家庄市区长江大道,114.60539497,38.03773058,311,综合酒楼,4,1,餐饮,中式餐饮,0,45.43342638262058
998,B2094757D765A0FE409F,如意坊豆捞,裕华区长江大道13号,114.6198,38.03805,311,火锅店,2,0,餐饮,中式餐饮,0,302.4876015626355
999,B2094757D765A5F84392,三江饺子馆,裕华区开发区珠峰大街(近水榭花都),114.60259,38.03284,311,特色／地方风味餐厅,13,9,餐饮,中式餐饮,0,0.0
1000,B2094656D365A2FD4793,蜀香石锅鱼石家庄总店,,114.60716,38.02403,311,中餐厅,2,0,餐饮,中式餐饮,0,79.42259266084069
1001,B2094656D06CA3FC409B,DQ(东方城市店),东方城市购物广场1层,114.59318,38.01414,311,冷饮店,33,7,餐饮,甜点饮品,0,83.61943475543787
1002,B2094757D56FA7FB4392,新概念营养膳食,中国河北省石家庄市区,114.59872342,38.03823568,311,中餐厅,1,0,餐饮,中式餐饮,0,160.89806238806355
1003,B2094757D768A0FC4993,保定菜馆,近郊长江大道与珠峰大街交口向西10米路北,114.62325,38.03765,311,河北菜,3,0,餐饮,中式餐饮,0,0.0
1004,B2094757D76BAAFB4798,忆概念火锅,裕华区长江大道(珠峰大街口),114.62325,38.03765,311,火锅店,3,2,餐饮,中式餐饮,0,0.0
1005,B2094757D765A0F94598,华莱士 湘江道店,裕华区湘江道(近石家庄学院),114.60469,38.03254,311,西餐厅,28,9,餐饮,国际餐饮,0,32.824169043738145
1006,B2094656D365A4F84498,瀛洲驴肉火烧,,114.68641,37.98826,311,特色／地方风味餐厅,8,1,餐饮,中式餐饮,0,300.3298849784085
1007,B2094757D76AA7F84299,肯德基 长江店,裕华区长江大道13号(近北国超市长江店),114.62325,38.03765,311,快餐厅,110,33,餐饮,小吃快餐,0,0.0
1008,B2094757D16AAAFA499C,丽晶新马印海鲜酒楼,裕华区高新开发区黄河大道136号(近市科技中心),114.60991,38.04498,311,海鲜酒楼,189,94,餐饮,中式餐饮,0,20.171382858926663
1009,B2094757D768A0FA489F,同祥城大酒店新港咖啡厅,黄河大道与天山大街交叉口东行200米路北(近28路留村车站),114.61954,38.04479,311,咖啡厅,186,69,餐饮,甜点饮品,0,0.0
1010,B2094757D16AA6F9469E,五洲国宴,裕华区长江大道158号卓达星辰花园,114.62325,38.03765,311,广东菜,595,315,餐饮,中式餐饮,0,0.0
1011,B2094757D76FAAFC4193,同祥城大酒店中餐厅,黄河大道与天山大街交叉口东行200米路北(近车留村站),114.61954,38.04479,311,中餐厅,31,7,餐饮,中式餐饮,0,0.0
1012,B2094656D365A7F9449E,KFC,,114.60488,38.03778,311,快餐厅,66,26,餐饮,小吃快餐,0,45.43342638262058
1013,B2094751D36BA2FD409D,乔家大厨,长安区黄河大道1号心海假日底商(近三角河公园),114.60044,38.03772,311,河北菜,1,1,餐饮,中式餐饮,0,85.30831187322113
1014,B2094757DB6CAAF8459C,万达广场,石家庄万达广场,114.61788556539548,38.03205122764698,311,餐饮美食,62,42,餐饮,其它,0,126.25099022150059
1015,B2094757D56FABFF419F,金食苑,中国河北省石家庄市区,114.60925239,38.0029088,311,中餐厅,4,0,餐饮,中式餐饮,0,864.941659674025
1016,B2094757D56FAAFC4799,功夫火锅,中国河北省石家庄市区长江大道,114.60434136,38.03787218,311,火锅店,32,29,餐饮,中式餐饮,0,48.273528012433964
1017,B2094757D56EAAFA439A,川菜王干锅城,中国河北省石家庄市区珠江大道,114.6084196,38.02411241,311,中餐厅,0,0,餐饮,中式餐饮,0,31.47167745965048
1018,B2094757D56FA2FB4493,三江真味火锅,中国河北省石家庄市区闽江道,114.6016333,38.02843289,311,火锅店,7,0,餐饮,中式餐饮,0,41.143940170958615
1019,B2094757D56FA4F8419D,蟹都汇,中国河北省石家庄市区,114.59981147,38.02394233,311,海鲜酒楼,5,1,餐饮,中式餐饮,0,135.895110645163
1020,B2094757D768A6FD439E,香满庄川味酒家,桥东区经济开发区开发大街康星家园商铺B3号(近三鹿厂附近),114.67088,38.02663,311,四川菜,3,0,餐饮,中式餐饮,0,59.333538083835336
1021,B2094757D76AA3F84198,三江饺子王,裕华区学苑路(石家庄学院南侧),114.60298,38.03061,311,中餐厅,4,1,餐饮,中式餐饮,0,89.3143019246772
