OBJECTID,poiid,title,address,lon,lat,city,category_sec,checkin_num,photo_num,category_fst,C1km,C2km,C3km
1,B2094753DA6EA2F8419A,水郡花洲,灵寿横山岭水库正南公路,114.164257,38.586015,311,住宅区,2,2,小区,0,0,0
2,B2094752D26AA2FB419D,河北省行唐县御城花园,,114.536093,38.436829,311,住宅区,1,0,小区,1,10,17
3,B2094753DA6EA3F44599,阳光河谷,平山温塘镇东侧,114.001436,38.260626,311,住宅区,0,0,小区,3,3,4
4,B2094753DA6EA3F4439D,卡纳小镇,石闫公路与温塘河口,114.00547,38.259413,311,住宅区,0,0,小区,1,3,4
5,B2094753DA6EA2FB459F,月光溪谷,蟠龙湖区域,114.341197,37.825608,311,住宅区,0,0,小区,0,0,1
6,B2094753DA6EA2FA4193,圣地亚水岸生活馆,蟠龙湖风景区,114.344587,37.824972,311,住宅区,0,0,小区,0,0,2
7,B2094753DA6EA2F94298,碧水别墅,蟠龙湖度假村,114.394305,37.804935,311,住宅区,0,0,小区,0,0,0
8,B2094753DA6EA2F84698,麓港小镇,蟠龙湖畔南岸风景区,114.341218,37.825565,311,住宅区,0,0,小区,0,0,1
9,B2094753DA6FA2FB459E,泊岸南山,潘龙湖南岸,114.395335,37.802816,311,住宅区,0,0,小区,0,0,0
10,B2094753DA6FA2FB469B,新景家园,翟营大街与学苑路交口,114.18035,37.723487,311,住宅区,0,0,小区,3,3,3
11,B2094753DA6FA2FB429F,天山龙湖湾,蟠龙湖旅游风景区南岸,114.179277,37.724429,311,住宅区,0,0,小区,3,3,3
12,B2094750D564A7F8409B,清凉盛景,平山驼梁景区售票处西北150米,113.802223,38.720608,311,住宅区,0,0,小区,3,3,3
13,B2094750D56AAAFA459B,驼梁中台山,平山县驼梁风景区中台山村东,113.81012,38.72034,311,住宅区,0,0,小区,3,3,3
14,B2094750D56BA6F5439E,孔雀湖原乡国际假日基地,行唐县口头水库西侧,114.369907,38.617541,311,住宅区,4,2,小区,0,0,0
15,B209475DD768A5FF479E,太行水乡度假小区,平山平山县拦道石红色生态风景区境内,113.754501,38.584673,311,住宅区,1,1,小区,0,0,0
16,B2094750D56AAAFF409F,洪洲花园,平山县古月镇西洪子店,113.862305,38.307181,311,住宅区,0,0,小区,0,0,0
17,B2094750D56BA4FB4393,西柏坡国御温泉度假小镇,平山温塘镇东部,114.004784,38.263524,311,住宅区,1,0,小区,3,3,4
18,B2094750D56AABFA499E,天山龙湖世界,蟠龙湖旅游风景区南岸西侧,114.343506,37.82443,311,住宅区,1,1,小区,0,0,2
19,B2094750D564A7F84693,麟凯江山墅,元氏县境内蟠龙湖风景区,114.38055,37.816293,311,住宅区,0,0,小区,0,1,1
20,B2094750D56AA3FD499E,龙城山湖颂,元氏装院路168号,114.399736,37.819844,311,住宅区,0,0,小区,0,0,1
21,B2094750D564A4FF479F,峰豪度假村,井陉县苍岩山景区,114.152412,37.830938,311,住宅区,3,0,小区,0,0,0
22,B2094656D364A6FF4099,蕃茄花园,,114.38545,37.6617,311,住宅区,0,0,小区,26,45,45
23,B2094750D564A7FD409E,上山间,石家庄市西部山前生态区，山前大道608号,114.309311,37.973974,311,住宅区,16,15,小区,0,1,2
24,B209475DD768A7FF4492,龙凤湖田园度假村全茂山庄,鹿泉铜冶镇羊角庄村,114.375916,37.949071,311,住宅区,7,1,小区,0,0,14
25,B2094753DA6FA2FB439F,梅迪雅逸墅,龙凤湖北岸,114.38069,37.929449,311,住宅区,0,0,小区,1,1,1
26,B2094750D569AAFD479D,天下财富湾,鹿泉市龙凤湖景区龙凤湖北岸,114.381666,37.929034,311,住宅区,3,2,小区,1,1,1
27,B2094750D569AAF44099,中堂,鹿泉市龙凤湖度假风景区龙凤湖南岸,114.382567,37.921339,311,住宅区,0,0,小区,1,1,1
28,B2094750D564A7FE489C,山水龙庭,元氏姬村镇城郎村村北,114.418316,37.891383,311,住宅区,1,1,小区,1,4,4
29,B2094753DA6EA3FB429B,翠堤湾水岸,蟠龙湖南案风景区,114.419174,37.899985,311,住宅区,0,0,小区,1,3,4
30,B2094753DA6EA3F5449E,天籁山水清音,鹿泉市省城西南龙凤湖畔,114.379166,37.928196,311,住宅区,0,0,小区,1,1,1
31,B2094753DA6EA2FF4999,中道佳馨,龙凤湖风景区,114.379692,37.929034,311,住宅区,0,0,小区,1,1,1
32,B2094750D56AA3FC4598,茗仁嘉苑,鹿泉龙凤湖景区北岸,114.380207,37.929105,311,住宅区,0,0,小区,1,1,1
33,B2094750D56AA3FC459D,水玲珑,庄院路259号，东郭村村北即到(封龙山前，龙凤湖畔),114.403338,37.914808,311,住宅区,1,1,小区,0,1,3
34,B2094750D56BAAF9439A,奥冠水悦龙庭,山前大道凤凰山北侧,114.309483,37.94677,311,住宅区,1,1,小区,1,1,1
35,B2094757D56FA5F5439C,河北工院学生公寓,中国河北省石家庄市区,114.470185,37.97657986,311,住宅区,5917,1936,小区,8,12,48
36,B2094656D06CA3FD409C,宫家庄新世纪小区,,114.46612,37.97846,311,住宅区,87,37,小区,8,21,68
37,B2094757D56FA1FF489D,河北工院学生公寓(北门),中国河北省石家庄市区,114.47012044,37.97723443,311,住宅区,106,22,小区,8,12,49
38,B2094750D56AA4F94498,翡翠城,栾城107国道和南三环交叉口南行四公里窦妪镇,114.510498,37.902558,311,住宅区,0,0,小区,0,1,1
39,B2094454D26CABFF439B,洨龙湾,裕翔街与南三环交叉口,114.51376,37.913597,311,住宅区,0,0,小区,0,1,2
40,B209475DD768A1F54092,帝城阳光,石铜路沿线与红旗路交口,114.38068974,37.96710155,311,住宅区,0,0,小区,13,13,13
41,B209475DD768A6FA469C,南国新大陆,裕翔街与衡井线交汇处,114.541569,37.906554,311,住宅区,0,0,小区,0,1,1
42,B209475DD768ABF8429A,8090.0,石铜路与西南三环交汇处东南角,114.39994812,37.97206963,311,住宅区,0,0,小区,0,13,15
43,B2094750D569ABF54599,铜城丽都,鹿泉市石铜路和获铜路交口西北角,114.381752,37.967749,311,住宅区,0,0,小区,13,13,13
44,B2094750D569AAF5409C,四季阳光城,红旗大街南头,114.481943,37.939336,311,住宅区,2,2,小区,0,4,4
45,B2094750D56AA3FD419A,十里洋房,胜利大街与南三环交叉口西南角,114.499061,37.952344,311,住宅区,1,1,小区,0,2,16
46,B2094750D56BA1FC469A,俪城兰庭,桥西红旗大街南沿线，与西南高校区及环城水系相邻,114.461746,37.933367,311,住宅区,0,0,小区,4,4,4
47,B2094750D564A3FD4693,四季花城,红旗大街与南二环交口南行500米路西,114.471303,37.946942,311,住宅区,0,0,小区,0,4,4
48,B2094750D564A3F5439C,海兰嘉园,红旗大街与东营北街交口南行500米路东,114.471016,37.940542,311,住宅区,1,0,小区,0,4,4
49,B2094750D564A5F9499B,都市新城,桥西红旗南大街西侧(寺家庄镇镇府西边),114.460613,37.936576,311,住宅区,0,0,小区,0,4,5
50,B2094753DA6EA3F4489F,水语春天,位于良村开发区以东,114.439151,37.957954,311,住宅区,0,0,小区,0,1,1
51,B2094753DA6EA3F4499A,城南春晓,胜利南大街,114.508352,37.95594,311,住宅区,0,0,小区,2,8,27
52,B2094753DA6EA3F54593,岸溪,鹿泉开发区,114.521055,37.932622,311,住宅区,1,1,小区,1,1,2
53,B2094750D564A3FE4199,城果,新胜利大街南延线新火车站出南二环南行2000米,114.504662,37.954485,311,住宅区,7,4,小区,1,2,16
54,B2094750D564A7F54692,城市印象,鹿泉红旗大街南头西行1000米寺家庄镇中心,114.468613,37.938782,311,住宅区,0,0,小区,4,4,4
55,B2094750D564A6FE4793,城市傲居,红旗大街与南三环交口南行1500米路西,114.460201,37.967343,311,住宅区,0,0,小区,0,8,13
56,B2094750D564A6F84492,理想城,桥西红旗大街南延线寺家庄镇(南三环交口西南角),114.450964,37.938825,311,住宅区,0,0,小区,0,4,5
57,B2094750D564A6FB4593,柠檬小镇,桥西红旗大街南三环交口南行1000米路西,114.464235,37.970185,311,住宅区,3,2,小区,3,8,23
58,B2094750D564ABFF479F,天冠城,桥西红旗大街与南三环交叉口南头,114.465566,37.969517,311,住宅区,0,0,小区,3,8,22
59,B2094750D56BA7FA4898,福城,栾城新开街与宏达路交口处,114.655037,37.894261,311,住宅区,1,0,小区,27,34,34
60,B2094750D564A3F44498,沸点名邸,栾城县宏远路与华兴街交叉口南行20米路东,114.639244,37.90222,311,住宅区,0,0,小区,2,23,34
61,B2094750D569A4FB489E,花溪里,栾城308国道与88米大道交口东南处,114.601822,37.925886,311,住宅区,1,1,小区,0,1,1
62,B2094750D569AAFE4492,现代阳光园,其他区栾城宏达路与新开街交叉口路南,114.653622,37.88132,311,住宅区,2,1,小区,17,30,35
63,B2094750D569AAFE469E,天山新伯爵,栾城县惠源路45号(体院馆东临),114.650433,37.882256,311,住宅区,2,2,小区,18,30,35
64,B2094750D569AAFF4698,学府一品,其他区栾城县丰泽大街与宏达路交汇处,114.64178,37.894441,311,住宅区,0,0,小区,10,34,36
65,B2094750D56AA6FB409B,尚城,栾城308国道与圣雪路交叉口,114.658127,37.894905,311,住宅区,0,0,小区,17,34,34
66,B2094750D564A6FB4892,尚城丽都,栾城裕泰路和丰泽街北大街交叉口，县政府北侧,114.647141,37.902423,311,住宅区,0,0,小区,5,28,35
67,B2094753DA6EA2FF4598,东坡家园,湘江大道太行大街交口,114.649168,37.893753,311,住宅区,0,0,小区,22,34,36
68,B2094753DA6EA2F94098,栾城水榭花都,裕泰路与丰泽大街交叉口,114.646454,37.897225,311,住宅区,1,1,小区,11,33,35
69,B2094750D56AAAF44299,华鼎孔雀城,栾城环城西路与裕泰路交口西南,114.620018,37.907231,311,住宅区,0,0,小区,1,1,5
70,B2094750D56BA7FA4193,神农福地,南三环308国道与衡井线交口东行6公里,114.682846,37.915763,311,住宅区,1,1,小区,0,0,3
71,B2094750D564A3FF459F,尚客怡园,太行大街与南三环交叉口南行1000米路东,114.652033,37.936345,311,住宅区,0,0,小区,0,0,1
72,B2094750D564A4FF4498,承翰世家,栾城裕泰路与新开大街交口西北角(栾城县政府东临),114.650005,37.900372,311,住宅区,0,0,小区,9,33,35
73,B2094753DA6EA2F9499E,中润怡园,藁城市正无路与机场路交口南行100米路西,114.900341,37.974583,311,住宅区,0,0,小区,0,1,1
74,B2094750D564A2F44592,贯庄四季花城,藁城衡井线与藁贾路交叉口西行1000米路南,114.878961,37.953538,311,住宅区,0,0,小区,0,0,0
75,B2094750D56AAAFB4593,富达山庄,石家庄市井陉县县材库南侧100米,114.158936,38.026459,311,住宅区,0,0,小区,0,4,4
76,B2094750D564A7FB489C,燕春星河国际,井陉矿区平涉路入区口,114.071732,38.059445,311,住宅区,0,0,小区,0,0,0
77,B2094750D56AAAFF4693,锦秀乾城,井陉县秀林镇棋盘岭平涉路路东秀林中学对过,114.084091,38.002656,311,住宅区,0,0,小区,2,2,3
78,B2094751D46BAAFB4492,尚都花园,河北省石家庄辛集市,115.229732,37.939036,311,住宅区,19,9,小区,7,40,101
79,B2094752D56CA4FD439E,石家庄朱雀门,井陉县秀林镇棋盘岭平涉公路东,114.095764,38.081068,311,住宅区,193,4,小区,0,0,0
80,B209475DD768A0FC4992,悠然居,石家庄鹿泉市抱犊寨山下,114.29008483,38.07701345,311,住宅区,0,0,小区,1,1,30
81,B2094750D564ABFD439C,大者,抱犊寨风景区东侧北斗路与观景大街交口南行800米路西,114.290686,38.087013,311,住宅区,3,3,小区,1,2,33
82,B209475DD46EA4F9439E,石家庄幸福家园社区,,114.86,38.064,311,住宅区,0,0,小区,0,0,5
83,B2094656D365A0F54798,阳光花园(正大小区西),,114.96503,38.17017,311,住宅区,109,73,小区,5,28,29
84,B2094656D365A4FC459B,正大小区,,114.96638,38.1701,311,住宅区,27,9,小区,5,28,29
85,B2094656D365A7FB4798,安康花园(正大小区西北),,114.96433,38.17125,311,住宅区,42,12,小区,10,28,29
86,B2094656D364AAFA489F,安康之家,昌盛北街2,114.85884,38.0317,311,住宅区,1,1,小区,75,146,165
87,B2094656D364A2FF499A,齐心家园,,114.85938,38.03257,311,住宅区,0,0,小区,73,143,165
88,B2094753DA6EA3FB459D,御温泉渡假小镇,石家庄市区以东16公里紧邻307国道,114.864807,38.031749,311,住宅区,0,0,小区,35,115,167
89,B2094656D364A2F4439E,天健装饰装修特训营学员宿舍,,114.85798,38.03583,311,住宅区,1,1,小区,77,139,165
90,B2094753DA6EA2FB479F,银虹花园,炼油厂工业区,115.145559,38.01777,311,住宅区,0,0,小区,0,0,0
91,B2094656D365A1FE469F,神池花园,平山县温塘镇石闫路,113.98042,38.26528,311,住宅区,13,7,小区,1,4,4
92,B2094656D365A7FF479C,清清世界度假村,,113.97772,38.26913,311,住宅区,11,1,小区,1,3,4
93,B2094757D768A6FA4398,欧陆苑,近郊平山县温塘镇,113.986849,38.259371,311,住宅区,0,0,小区,1,4,4
94,B2094750D569AAFF499D,卓达假日公馆,其他区平山温塘镇东侧,113.988925,38.260544,311,住宅区,0,0,小区,2,4,4
95,B2094753DA6FA2FB469D,星期八假日,平山县温塘镇,113.97337,38.261738,311,住宅区,0,0,小区,1,2,4
96,B2094750D569AAFE459F,东方波尔多庄园,平山县温塘镇中心侧,113.987397,38.261237,311,住宅区,0,0,小区,2,4,4
97,B2094750D569AAF8429F,华域御水蓝庭,其他区平山温塘镇东入口处石闫公路南侧,113.989939,38.261814,311,住宅区,0,0,小区,3,4,4
98,B2094750D569AAF8499D,温泉桃花城,其他区平山温塘镇,113.988271,38.259245,311,住宅区,0,0,小区,1,4,4
99,B2094750D569AAFB409F,温泉国际,西北方向太行山与华北平原交界处,113.990879,38.260963,311,住宅区,1,1,小区,3,4,4
100,B2094750D564A0FD4399,林屿森林别墅,温塘镇温塘河西岸石闫公路南侧,113.986759,38.259615,311,住宅区,0,0,小区,1,4,4
101,B2094750D564A7F54793,汤城香格里,平山温塘站前商业街东200米路南,113.990707,38.259211,311,住宅区,0,0,小区,2,4,4
102,B2094753DA6EA3F5479D,神州花园,温塘镇,113.986802,38.260457,311,住宅区,0,0,小区,1,4,4
103,B2094753DA6EA2FA4493,滨河峻景,平山温塘镇,113.990729,38.263204,311,住宅区,0,0,小区,3,4,4
104,B2094753DA6EA2F4419F,格林童话,温塘镇,113.987188,38.260963,311,住宅区,0,0,小区,1,4,4
105,B2094753DA6EA2F5419B,莱茵假日,平山温塘镇,113.995825,38.263145,311,住宅区,1,0,小区,3,4,4
106,B2094753DA6EA1FC4899,颐和山水,温塘镇西南鹿台,113.989334,38.257593,311,住宅区,0,0,小区,1,4,4
107,B2094753DA6EA1F8479B,温泉假日,温塘镇温泉东路,113.990214,38.264147,311,住宅区,1,0,小区,3,4,4
108,B2094750D56BA0FF4999,华威三十七英里,石家庄市平山县温塘镇东入口西行300米，石闫公路南侧,113.984528,38.260828,311,住宅区,0,0,小区,0,4,4
109,B2094454D26CAAF8489D,西柏坡国御温泉度假小镇御山美墅,平山县温塘镇东,114.2337799,38.24680841,311,住宅区,0,0,小区,1,4,8
110,B2094454D26CABFD449A,石家庄逸格,平山县柏坡东路与蒲胜大街交口东南角,114.22245,38.252471,311,住宅区,0,0,小区,5,8,8
111,B209475DD768A4FA469D,滨河雅园,平山县冶河西路68号(新县医院对过),114.192581,38.259497,311,住宅区,0,0,小区,3,6,10
112,B2094753DA6FA2FB4198,温塘兰溪谷,平山温塘镇,114.228512,38.267517,311,住宅区,0,0,小区,0,5,8
113,B2094750D569AAFC4192,东岸酷博,平山温塘车站西行200米路北,114.18927,38.256898,311,住宅区,0,0,小区,2,5,9
114,B2094750D569AAF9479E,盛景华庭,其他区平山县平光南街和建材街交叉口向东150米,114.206334,38.24913,311,住宅区,0,0,小区,2,8,10
115,B2094753DA6EA2FC4298,水云涧,平山县西北部驼梁风景区,114.217097,38.255799,311,住宅区,0,0,小区,5,8,9
116,B2094753DA6EA2FE479F,天圣华庭,平山县商贸中心南,114.212279,38.261266,311,住宅区,0,0,小区,5,8,10
117,B2094753DA6EA2FF409C,假日听海,岗南镇,114.203439,38.250718,311,住宅区,0,0,小区,3,8,10
118,B2094753DA6EA2FF489E,龙山先生,九龙山风景区内,114.215841,38.25734,311,住宅区,0,0,小区,6,8,10
119,B2094753DA6EA2F44098,温泉绿色庄园,平山县温塘镇,114.189277,38.250819,311,住宅区,0,0,小区,0,5,9
120,B2094753DA6EA2F44593,温泉山庄,平山温塘镇泉眼南,114.203246,38.256178,311,住宅区,0,0,小区,4,10,10
121,B2094752D26DA0FC4793,老街坊炖骨馆,近郊平山县外环路南义羊村东,114.24087,38.23851,311,住宅区,0,0,小区,0,1,4
122,B2094656D368A0F84198,秦庄荷花园,,114.34364,38.21781,311,住宅区,0,0,小区,0,0,1
123,B2094750D56BABFB429B,国际空港花园,正定新区京珠高速以东，机场路以南东平乐(正定四中南行150米路西),114.681258,38.266927,311,住宅区,0,0,小区,57,59,61
124,B2094750D56AAAF4459B,空港家合小镇,空港新区,114.706364,38.274171,311,住宅区,0,0,小区,3,58,61
125,B2094750D56BA6FA439D,空港国际,正定新区国际机场新建航站楼西500米,114.687412,38.27719,311,住宅区,21,16,小区,57,61,61
126,B2094750D56BA6F44293,北辰商务花园,北二环和东二环交叉口西北角,114.619263,38.194212,311,住宅区,0,0,小区,0,0,0
127,B2094750D564A1F44792,树林新村,正定新区正定国际物流园南邻,114.592209,38.178291,311,住宅区,0,0,小区,0,0,13
128,B2094750D564ABF94393,新安家园,正定新区107国道与绕城高速交口北行500米路东新安镇政府南邻,114.622679,38.214446,311,住宅区,1,0,小区,0,1,1
129,B2094750D564ABF9459D,福郡雅居,正定新区107国道与机场路交叉口北行800米路东,114.650917,38.260289,311,住宅区,0,0,小区,0,0,0
130,B2094750D564ABF94498,居鑫苑,正定新区正行路与正灵路交叉路口北行1.5公里路东,114.792589,38.136892,311,住宅区,0,0,小区,0,0,0
131,B2094656D368A0F84293,春草苑,,114.98856,38.17731,311,住宅区,21,9,小区,9,26,30
132,B2094752D56CA6FB4498,紫晶名门,深泽县北苑路与西苑街交叉口西行300米路北,115.196288,38.191514,311,住宅区,1,1,小区,1,5,5
133,B2094750D564A0FE419D,塞纳河谷,深泽县医院东行300米,115.213966,38.185248,311,住宅区,1,0,小区,2,5,5
134,B2094656D365A0F9479B,富泽园,,115.20362,38.19198,311,住宅区,361,130,小区,2,5,5
135,B209475DD16EA4F94492,北方明珠住宅小区,河北省 石家庄市 深泽县北苑路,115.205856,38.192943,311,住宅区,6,1,小区,2,5,5
136,B2094750D564A0FD479B,兴和苑,深泽县后马里村马里办事处东临,115.30838,38.190165,311,住宅区,0,0,小区,1,1,1
137,B2094750D569AAFE449D,峰林湖畔,其他区平山岗南镇岗南水库旁,114.035854,38.319707,311,住宅区,1,0,小区,0,2,2
138,B209475DD768A4F94993,神池龙泉溪,平山县温塘镇石闫路往西至桃园街路东,113.999634,38.269454,311,住宅区,0,0,小区,3,3,4
139,B2094753DA6FA2FB469C,乐城,温塘镇西岸宾馆西边,113.99369,38.289869,311,住宅区,0,0,小区,0,0,3
140,B2094753DA6EA2FA479B,水印长滩,岗南水库上游,114.02298,38.32772,311,住宅区,0,0,小区,2,2,2
141,B2094753DA6EA2F44698,千百度澜珊,温塘镇东边301省级公路对面,114.002638,38.266287,311,住宅区,0,0,小区,3,3,4
142,B2094750D56BA6FB4098,家和苑,中华北大街交正灵公路东南角,114.515948,38.222302,311,住宅区,0,0,小区,0,0,2
143,B2094750D56BA5FF439A,水郡花洲,灵寿县横山湖水库北岸,114.388962,38.307719,311,住宅区,0,0,小区,2,5,5
144,B2094753DA6EA2FD4299,观澜逸品,横山湖旅游度假区北岸,114.376001,38.306457,311,住宅区,0,0,小区,2,5,5
145,B2094753DA6EA1FE489B,东城小区,灵寿县城附近,114.386644,38.299671,311,住宅区,0,0,小区,2,3,5
146,B2094656D365A7FD4498,敬业公寓,,114.13931,38.37017,311,住宅区,81,19,小区,2,3,3
147,B209475DD768A4FC4792,藏龙镇,平山县南甸镇王坡乡黄金寨旅游区北邻,114.117737,38.392263,311,住宅区,0,0,小区,0,1,3
148,B2094752D56CA6FB469C,盛世名门,行唐县城东桥头南行150米路西,114.564743,38.42616,311,住宅区,0,0,小区,2,15,17
149,B209475DD06CA2FF4098,花园小区,香港路2号,114.569595,38.432044,311,住宅区,0,0,小区,3,16,17
150,B2094656D365A5F5499D,泰和花园,,114.67841,38.35624,311,住宅区,78,24,小区,7,17,19
151,B2094656D365A2FE419E,颐和花园,,114.68092,38.33531,311,住宅区,36,12,小区,1,14,19
152,B2094656D365A7FC4792,建安小区,,114.69396,38.34626,311,住宅区,37,14,小区,9,18,21
153,B2094753DA6EA3F44292,元亨家园,幸福路以北,114.67864,38.357744,311,住宅区,6,1,小区,5,17,19
154,B2094656D364A6FE469A,馨苑小区,,114.39703,37.66496,311,住宅区,399,88,小区,33,45,45
155,B2094656D364AAF5459C,凤城花园,,114.61025,37.59706,311,住宅区,94,32,小区,11,41,47
156,B2094656D364A6F44892,阳光花园,,114.60556,37.61466,311,住宅区,219,75,小区,25,46,47
157,B2094656D364A5FC469F,信合怡园,,114.60773,37.59816,311,住宅区,12,3,小区,14,45,47
158,B2094656D364A6F5429E,供电局生活区,,114.60832,37.60779,311,住宅区,9,3,小区,43,46,47
159,B2094750D569AAFE409F,碧水明珠,其他区域石家庄市元氏县蟠龙湖南岸,114.514408,37.750048,311,住宅区,0,0,小区,13,57,90
160,B2094750D569AAFE419A,泊岸南山,其他区域元氏县潘龙湖南岸,114.513609,37.74793,311,住宅区,0,0,小区,7,36,88
161,B2094656D364A0FB479D,东关小区,,114.52199,37.75479,311,住宅区,15,4,小区,36,90,94
162,B209475DD768A6FD499E,金桥天海湾,元氏县常山路与西环交口西北,114.50174328,37.76747594,311,住宅区,0,0,小区,0,36,73
163,B2094750D569AAFD449E,享墅,其它区元氏县蟠龙湖南案风景区,114.515547,37.758037,311,住宅区,0,0,小区,32,75,94
164,B2094753DA6EA2FA4693,大湖之翼,蟠龙湖风景区,114.509082,37.744521,311,住宅区,0,0,小区,0,19,75
165,B2094753DA6EA2F54698,心海湾,岗丘路石炼宾馆斜对面,114.516163,37.758501,311,住宅区,2,0,小区,37,84,94
166,B2094753DA6EA1FC419D,蟠龙湖别墅,蟠龙湖景区,114.510627,37.745896,311,住宅区,1,1,小区,0,24,79
167,B2094750D569AAFF419B,天怡庄园,其他区赵县柏林大街北头路东,114.767279,37.749472,311,住宅区,1,1,小区,72,138,143
168,B2094750D564A6FB479E,中央逸家,赵县重点中学西邻,114.771595,37.752869,311,住宅区,1,0,小区,83,140,140
169,B209475DD768A1FC419C,翡翠华庭,常山路与槐阳大街交口北行400米路西(北国商城北行400米路西),114.53650472,37.76793456,311,住宅区,1,1,小区,18,82,94
170,B2094656D364A7FE4093,小区(槐阳镇人民政府北),,114.53632,37.77152,311,住宅区,14,3,小区,12,77,94
171,B2094656D364A7FE449F,怡景嘉园,,114.52099,37.76649,311,住宅区,82,36,小区,36,92,94
172,B2094656D364A7FE4492,银苑小区,,114.51976,37.76648,311,住宅区,45,12,小区,36,89,94
173,B2094656D364A0FB4892,双龙花园,,114.52674,37.75498,311,住宅区,130,77,小区,36,90,94
174,B2094750D569ABF5469E,岸乡,其它区元氏蟠龙湖南岸紧临工行度假村,114.535874,37.764831,311,住宅区,0,0,小区,30,90,94
175,B2094750D564A0FB4793,元氏盛世华庭,元氏县常山路槐阳大街北行500米路东,114.538822,37.770019,311,住宅区,0,0,小区,12,75,94
176,B2094750D564A7FB4793,元氏天山水榭花都,元氏县常山路县一中对过,114.520111,37.775057,311,住宅区,35,16,小区,11,52,94
177,B2094750D564A6F8459E,雅仕兰庭,元氏常山路与槐阳大街交口北行100米,114.536934,37.768544,311,住宅区,0,0,小区,16,82,94
178,B2094656D364A7FD409A,工商银行生活小区,,114.52563,37.75796,311,住宅区,10,5,小区,51,91,94
179,B2094656D364A7FE469C,六合苑,,114.51476,37.76605,311,住宅区,27,9,小区,32,80,94
180,B2094656D364A7FE489F,扬华小区,,114.52406,37.76604,311,住宅区,1,0,小区,39,94,94
181,B2094753D56DAAFA409B,北苑花园,河北省 石家庄市 元氏县 常山路163号,114.5167,37.765998,311,住宅区,1,0,小区,39,83,94
182,B2094757D56FABFE419E,卓达太阳城,栾城308国道与南三环交汇处路北,114.5969656,37.9498584,311,住宅区,712,396,小区,1,1,1
183,B2094750D564A2F44893,恒大雅苑,裕华翟营南大街与广源路交叉口(方郄路178号),114.567661,37.979995,311,住宅区,519,291,小区,1,5,39
184,B2094750D56AAAFA4899,东龙府邸,裕华谈固大街南延线与308国道交口西南方,114.561803,37.971677,311,住宅区,9,5,小区,2,2,15
185,B209475DD768A3F44499,卓达太阳城希望之洲,石家庄308国道与京港澳高速交口东侧,114.5877457,37.95286016,311,住宅区,1,0,小区,0,1,2
186,B209475DD768ABFA419F,卓达太阳城青年之都,石家庄308国道与京港澳高速交口东侧,114.59220888,37.95338167,311,住宅区,0,0,小区,0,1,1
187,B2094750D56BA7FB469D,万和城,裕翔街与环城水系交口东南角,114.535904,37.958546,311,住宅区,0,0,小区,0,6,27
188,B2094750D56AAAF5469A,新谊家园,卓达太阳城南行200米，308国道东侧,114.598056,37.947819,311,住宅区,0,0,小区,1,1,1
189,B2094753DA6EA2F5419E,卓达太阳城汉府,石栾公路与京珠高速交叉口,114.589205,37.952675,311,住宅区,1,0,小区,0,1,1
190,B2094753DA6EA1FC479E,佳琳花园,翟营大街南头,114.567404,37.979792,311,住宅区,0,0,小区,1,5,37
191,B2094752D56CA4FB439E,泊水湖1号,东二环与南二环交口南行约2000米,114.577446,37.978033,311,住宅区,0,0,小区,0,4,10
192,B2094753D564A5F4429E,千禧花园,河北省 石家庄市 建设街，文昌路,115.225006,37.916599,311,住宅区,29,12,小区,61,83,108
193,B2094750DB6AA2FB4492,芳华小区,河北省辛集市芳华小区,115.235671,37.923984,311,住宅区,39,17,小区,3,62,116
194,B2094751D26FA6FB4992,明珠花园,辛集市明珠花园小区,115.206718,37.929267,311,住宅区,40,19,小区,10,94,116
195,B2094656D365A5F4429E,河北辛集化工集团三生活区,,115.22179,37.90708,311,住宅区,2,0,小区,15,75,86
196,B2094750DA69ABFB449C,千禧花园,,115.222595,37.914871,311,住宅区,2,0,小区,66,82,102
197,B2094750D26EA6F54092,古城花园,河北省 石家庄市 辛集市古城花园,115.21991,37.947045,311,住宅区,22,14,小区,19,35,45
198,B2094656D364A0FC4293,铁马住宅小区,,115.21572,37.92267,311,住宅区,3,1,小区,63,97,116
199,B2094656D364A0FC469E,鹿马公司职工生活区,,115.20669,37.91836,311,住宅区,9,0,小区,22,84,112
200,B2094757D56FA2F5419A,绿洲小区南院,中国河北省辛集市,115.23694689,37.91884711,311,住宅区,175,57,小区,4,64,97
201,B2094656D364A1F5449F,鑫苑花园,石家庄辛集鑫苑花园,115.20944,37.93863,311,住宅区,173,54,小区,27,42,106
202,B2094757D56FA1F8419F,天山花园(北门),中国河北省辛集市安定大街,115.22706923,37.93794488,311,住宅区,223,58,小区,15,41,109
203,B2094757D56FAAF9429B,安定小区西区,中国河北省辛集市,115.22294,37.94055447,311,住宅区,132,36,小区,28,42,104
204,B2094656D364A1F44993,澳森生活小区,,115.21479,37.94982,311,住宅区,122,50,小区,16,32,45
205,B2094656D364A1F5439D,亨盛小区,,115.21334,37.93852,311,住宅区,37,14,小区,31,44,109
206,B2094757D56FA0FA419C,富贵花园,中国河北省辛集市文昌路,115.22461453,37.93672743,311,住宅区,12,6,小区,24,43,112
207,B2094753DA6EA2FC4899,橡胶厂宿舍,和平东路与东二环交叉口,115.22374,37.918176,311,住宅区,0,0,小区,62,85,116
208,B2094656D368A5F94892,西山花园别墅,河北省,114.3707,38.0416,311,住宅区,2666,1397,小区,3,6,12
209,B2094656D365ABF8479C,龙泉花园,龙泉花园,114.37844,38.0082,311,住宅区,691,210,小区,2,2,3
210,B2094757D56FAAF4409D,云鼎山庄,槐安西路与山前大道交汇处北行300米,114.343846,38.025164,311,住宅区,40,13,小区,0,0,2
211,B2094656D365A4FB459C,吉溪庄园,,114.32937,38.01706,311,住宅区,55,17,小区,0,1,1
212,B2094656D364A5F4499D,龙海新区(鹿泉市妇幼保健院东北),,114.32965,38.07984,311,住宅区,126,68,小区,19,46,52
213,B2094656D368A5FB469A,吉恒小区,吉恒街8号,114.406,38.03934,311,住宅区,84,36,小区,26,52,184
214,B2094656D365A7FF4799,上庄新新家园,,114.39032,38.03253,311,住宅区,329,78,小区,3,11,45
215,B2094656D365A3F44299,富丽花园富兴苑,中山西路,114.37802,38.03686,311,住宅区,140,75,小区,2,6,31
216,B2094656D368A5FB4593,西兴小区,桥西区西王西兴小区,114.40555,38.04406,311,住宅区,84,22,小区,25,52,182
217,B2094656D06CA1FE449F,申后新村,,114.35439,38.06741,311,住宅区,37,9,小区,0,8,25
218,B2094750D66EAAFB489B,水岸星城,槐安路与西三环交叉口往东路北,114.411506,38.026462,311,住宅区,23,4,小区,3,74,287
219,B2094757D56FA1F44492,西山渡,山前大道与龙泉寺交口南行2公里路西,114.3221856,38.03514556,311,住宅区,10,8,小区,0,0,1
220,B2094750DA6BA6FF4692,朗润园小区,获铜路8号,114.356903,38.048885,311,住宅区,44,20,小区,3,4,9
221,B2094750D564A5FD409B,苏园,桥西石铜路432号，距南二环1200米处,114.426727,37.993998,311,住宅区,5,4,小区,3,5,62
222,B2094750D56AA3FF409F,西山御园,鹿泉翠屏山迎宾馆北侧(鹿泉经济技术开发区),114.348969,38.049154,311,住宅区,4,3,小区,1,3,10
223,B2094454D26CABFB4092,帕克公馆,中山路与苑西街交口1号地铁口,114.411364,38.039304,311,住宅区,0,0,小区,30,61,324
224,B2094454D26CAAFF449E,恒信国际产业园,位于石家庄市石铜路与南二环交叉口南行4.5公里处,114.42157743,37.98753808,311,住宅区,0,0,小区,3,3,7
225,B2094750D569AAFE429D,宏扬香木林,鹿泉中山西路上庄镇,114.376287,38.037525,311,住宅区,2,1,小区,2,5,28
226,B209475DD768A3FB4299,众诚五福苑,槐安路与苑东街交口西北角,114.41938881,38.02461611,311,住宅区,0,0,小区,28,98,493
227,B209475DD768A5F84992,壹号院,中山西路沿线御园路南侧,114.370422,38.043089,311,住宅区,0,1,小区,3,6,11
228,B2094752D56CAAF9429E,西城国际,和平路西路与海山大街交口处东北角,114.331198,38.078501,311,住宅区,0,0,小区,20,42,53
229,B2094750D569AAF4479B,西城公馆,中山西路与获铜路交口北行100米路西,114.380757,38.034865,311,住宅区,1,1,小区,3,5,33
230,B2094753DA6FA2FB4199,金瓦台,中山西路800号,114.407898,38.04009,311,住宅区,0,0,小区,29,54,202
231,B2094753DA6FA2FB449A,永兴花园,石铜路666号,114.427071,37.99158,311,住宅区,4,4,小区,3,3,50
232,B2094753DA69A0FA459E,油漆厂宿舍,车管所西行100米,114.409368,38.041805,311,住宅区,0,0,小区,28,60,225
233,B2094750D569AAFC449C,龙洲新城,石铜路与车铜冶交叉口100米,114.429019,37.994046,311,住宅区,3,1,小区,2,6,109
234,B2094750D569AAFE439A,瑞泰澜庭,鹿泉市高新区昌盛大街108号,114.369736,38.066879,311,住宅区,2,2,小区,4,6,16
235,B2094750D569AAFF4993,唐宁官邸,老动物园(苑西街)西侧,114.413115,38.034907,311,住宅区,0,0,小区,16,93,352
236,B2094750D569AAF94192,锦绣山城,石家庄山前大道,114.38314,38.034301,311,住宅区,1,1,小区,3,5,33
237,B2094750D569AAF44198,方盛园,新华西路与西三环路交叉口,114.34998,38.069261,311,住宅区,0,0,小区,0,7,32
238,B2094750D569AAF54399,龙泉盛景,槐安西路与获铜路交叉口路南,114.389742,38.02388,311,住宅区,0,0,小区,0,5,36
239,B2094750D56AA3FC499C,西山岭秀,桥西区上庄镇,114.393042,38.035325,311,住宅区,0,0,小区,2,29,54
240,B2094750D56AA3FD4899,西山绿岛,中山路与获铜路交叉口东北(上庄),114.382267,38.032949,311,住宅区,5,4,小区,3,5,33
241,B2094750D56AA3FE499C,绿荫锦江,中山西路一路车终点站(西兴超市)西行100米,114.408581,38.040691,311,住宅区,10,6,小区,29,59,210
242,B2094750D56BA2F44699,军城港湾,新华路与西三环交口西南角,114.367332,38.060256,311,住宅区,3,2,小区,3,7,14
243,B2094753DA6EA3F4439E,美达西山御园,石家庄市鹿泉经济技术开发区,114.348969,38.049154,311,住宅区,0,0,小区,1,3,10
244,B2094753DA6EA3F4439C,吉恒园,吉恒街8号,114.406954,38.037428,311,住宅区,2,1,小区,27,55,192
245,B2094753DA6EA3F44699,置嘉公寓,新华西路与西三环交叉口,114.369907,38.063466,311,住宅区,0,0,小区,4,6,14
246,B2094753DA6EA3F4469F,香堤名筑,工农路与院西路交口,114.412469,38.033067,311,住宅区,0,0,小区,14,92,350
247,B2094753DA6EA3F54292,安联朗润园,北方大学园区内,114.38334,38.037242,311,住宅区,1,0,小区,3,5,35
248,B2094753DA6EA2FC479D,静心园,石铜路与三环交叉口,114.42529,37.992307,311,住宅区,0,0,小区,3,3,47
249,B2094753DA6EA2FD419E,翰林雅筑,建通街与仓丰路交叉口南行200米路东,114.409733,37.984257,311,住宅区,0,0,小区,1,3,15
250,B2094753DA6EA2FD419D,苑西小区,动物园西侧,114.412951,38.029941,311,住宅区,0,0,小区,6,96,377
251,B2094753DA6EA2FE409A,秀水丽城,上庄镇台头村,114.397781,38.015488,311,住宅区,0,0,小区,0,1,34
252,B2094753DA6EA2FF4798,龙泉西区,槐安路与三环交叉口,114.377933,38.005936,311,住宅区,1,1,小区,2,2,2
253,B2094753DA6EA2FF499A,浪琴湾,西三环边上石获南路,114.375443,38.062487,311,住宅区,0,0,小区,4,8,18
254,B2094753DA6EA2F94199,金虹花园,中山西路816号,114.406815,38.039642,311,住宅区,0,0,小区,28,52,191
255,B2094753DA6EA2FA449D,盛泽果岭湾,新华路与西三环交汇处,114.367976,38.060223,311,住宅区,1,1,小区,4,8,14
256,B2094753DA6EA2FA4599,易城雅居,红旗大街寺家庄村,114.364843,38.04461,311,住宅区,0,0,小区,2,6,10
257,B2094753DA6EA2F5449D,丽秀园,中山路与西三环交叉口上庄镇政府对面,114.392953,38.040554,311,住宅区,0,0,小区,2,30,60
258,B2094753DA6EA2F54893,汀香十里,海山大街附近,114.308474,38.078501,311,住宅区,0,0,小区,10,44,54
259,B2094753DA6EA1FC439F,安年颐园,中山路西延线联合大学城附近,114.381967,38.036735,311,住宅区,0,0,小区,3,6,33
260,B2094753DA6EA1FC4392,汇鑫小区,石炼佳园南侧工商银行对面,114.318001,38.075916,311,住宅区,0,0,小区,12,45,53
261,B2094753DA6EA1FD4392,西锦小区,中营街1号,114.402695,38.045675,311,住宅区,1,1,小区,23,45,88
262,B2094753DA6EA1FF439D,安联星朗,联合大学城附近,114.382653,38.037124,311,住宅区,0,0,小区,3,5,33
263,B2094753DA6EA1FF4799,依山花园,红旗大街与仓安路交叉口,114.422436,37.988553,311,住宅区,0,0,小区,3,3,12
264,B2094753DA6EA1F8449C,丽馨园,中山西路上庄镇政府西侧,114.37731,38.036769,311,住宅区,0,0,小区,2,6,29
265,B2094753DA6EA1F8469F,丽景园,中山西路上庄段,114.380894,38.036414,311,住宅区,0,0,小区,3,6,32
266,B2094752D56CA6FF449A,蓝湾半岛,鹿泉市获鹿镇六街,114.320726,38.078366,311,住宅区,0,0,小区,25,49,52
267,B2094750D56BA3FF469C,绿墅蓝山(云台),石家庄市槐安路与山前大道交汇处北行800米,114.33197,38.039439,311,住宅区,0,0,小区,0,0,3
268,B2094750D56BA1FF4693,百盛郁金香,中山西路北国超市西兴店西行500米,114.401407,38.038526,311,住宅区,0,0,小区,24,41,108
269,B2094750D56BA5FB499A,何东比邻居,鹿泉市新华路与西三环交汇处西行1500米路北,114.335107,38.078146,311,住宅区,0,0,小区,14,38,54
270,B2094750D56BA4FC449B,中山凯旋门,桥西中山西路与兴华街交叉口南行200米,114.386012,38.035594,311,住宅区,202,6,小区,3,5,41
271,B2094750D56BAAFD489A,香醍溪岸,槐安路西沿线至山前大道龙泉寺对面,114.344931,38.021016,311,住宅区,0,0,小区,0,0,2
272,B2094750D56BAAFF489C,西山一号,鹿泉山前大道与龙泉寺交口南行2公里,114.322872,38.043157,311,住宅区,1,1,小区,0,1,3
273,B2094750D564A3FF489C,西兴花园,中山西路与长兴街交口北行400米路东,114.408531,38.042954,311,住宅区,0,0,小区,28,58,204
274,B2094750D564A3F9469F,裕西华府,中山西路772号,114.409776,38.039168,311,住宅区,0,0,小区,29,60,248
275,B2094750D564A6FD439D,龙泉凯旋,鹿泉市中山西路上庄镇南(槐安西路与232高速交叉口南行2公里),114.376259,38.013206,311,住宅区,0,0,小区,2,2,4
276,B2094750D564A6FA439D,庄辰丽景苑,工农路与苑东街交口西行三百米路南(裕西公园西南),114.415033,38.031174,311,住宅区,0,0,小区,8,102,418
277,B2094750D564A6FB449C,滨湖颐园,鹿泉市中山路与西三环交叉口北行至国宾路西行500米路北,114.375486,38.04532,311,住宅区,1,0,小区,3,6,37
278,B2094750D564A4FB459B,江水西岸,石家庄西三环翠屏路交口西行200米路北,114.388618,38.045387,311,住宅区,0,0,小区,1,28,53
279,B2094750D564ABFE409C,恒大金碧天下,石家庄市槐安西路西沿线与青银高速交汇处西南方,114.341412,38.015911,311,住宅区,3,2,小区,0,1,2
280,B2094750D564ABF94099,欧景城,晋州商务宾馆北行50米路东,115.067247,38.023325,311,住宅区,1,0,小区,8,18,41
281,B2094750D26FA2FD409C,朝阳小区,晋州市朝阳小区,115.063552,38.033966,311,住宅区,150,40,小区,1,26,45
282,B2094757D56FA6FA419D,龙头花园,中国河北省晋州市,115.06062771,38.03694472,311,住宅区,254,80,小区,2,25,47
283,B2094757D56FA6FD4993,朝阳馨苑(朝阳小区社区卫生服务站西),中国河北省晋州市,115.0609101,38.03644748,311,住宅区,67,30,小区,2,26,47
284,B2094656D365A6FF439B,富康楼,,115.03306,38.02582,311,住宅区,8,0,小区,22,40,48
285,B2094750D668A3FD439F,石油小区,工业路东边,115.020423,38.017192,311,住宅区,1,0,小区,1,17,34
286,B2094656D364A1F9429D,世纪花园(中兴街),,115.06179,38.02438,311,住宅区,80,38,小区,13,27,49
287,B2094656D365A4F4449A,田家庄新区,天苑小区西邻,114.44238,38.099842,311,住宅区,88,14,小区,10,46,180
288,B2094750D564A5FC4792,上水园商铺,新华友谊北大街与丰产路交叉口西北角,114.455131,38.120688,311,住宅区,0,0,小区,0,9,41
289,B2094750D56BA5F84298,农耕时代,友谊北大街与学府路交叉口西行200米路北,114.468441,38.145898,311,住宅区,1,0,小区,1,8,19
290,B2094656D365A4F5459F,纳帕溪谷,石清路,114.43063,38.12354,311,住宅区,513,250,小区,2,8,11
291,B2094757DA6EA6FB479E,绿源小区,桥东区学府路,114.495563507079,38.1274000368368,311,住宅区,192,64,小区,17,29,50
292,B2094757D56FA6FC419C,杜北小区,北二环民心河北侧,114.44096761,38.11782172,311,住宅区,191,66,小区,6,10,37
293,B2094757D56FA1FB489B,美景天地,新华友谊大街东，南水北调南，西营村北,114.4632478,38.13924778,311,住宅区,20,11,小区,2,5,15
294,B2094656D365A7FD449D,东柏棠康居家园,,114.5404,38.16479,311,住宅区,17,2,小区,1,15,106
295,B2094750DB6CA1F8409A,原河名墅,中华北大街与翠屏西路交口东南角,114.4731011796998,38.11603902191146,311,住宅区,172,96,小区,6,10,141
296,B2094750D564A4FE4698,河心岛,正定中华大街胜利大街与滹沱河交汇处,114.522514,38.137527,311,住宅区,69,59,小区,0,5,37
297,B2094752D569A3FF4893,河心岛别墅,新华区中华大街、胜利大街与滹沱河交汇处,114.508339,38.150243,311,住宅区,12,10,小区,0,1,23
298,B209475DDB65A4FF429D,南海佳园,石铜路与南二环交口,114.43192,38.13405,311,住宅区,0,0,小区,0,2,10
299,B2094750D564A1F94099,康太家园,新华区友谊大街与古城西路交口西南角,114.453635,38.102819,311,住宅区,0,0,小区,7,57,256
300,B209475DD768A1FC4299,泊岸星城,车站西街与曙光路交口北行800米路西,114.54925078,38.17022759,311,住宅区,0,0,小区,2,21,115
301,B209475DD768A0FD489A,玉琥明珠苑,中华北大街高速收费站西南角,114.51929564,38.19223981,311,住宅区,0,0,小区,2,2,3
302,B209475DD768A0F54693,怡荷园,中华北大街曙光路北行1000米路西,114.512826,38.1915376,311,住宅区,0,0,小区,0,3,3
303,B209475DD768ABFD429E,东岸尚园,石家庄市新华区中华北大街与太平河交口,114.476552,38.10623,311,住宅区,1,1,小区,11,94,201
304,B2094750D56BA3FB499F,南海佳园花溪别墅,新华区石闫公路杜北以西,114.432907,38.136447,311,住宅区,0,0,小区,0,2,7
305,B2094753DA6FA2FB469E,南高基小区,中华北大街与北三环交叉口,114.470887,38.11663,311,住宅区,3,2,小区,6,8,135
306,B2094750D56AA3FE4693,成果社区,石清路毗卢寺对过,114.424667,38.125374,311,住宅区,0,0,小区,2,2,10
307,B2094750D56BA0F9409A,壹江城,恒山路与107国道交汇处西行800米路南斜角头村改造,114.535089,38.1542,311,住宅区,5,1,小区,0,13,98
308,B2094750D56BABF9419D,四季春城,新华石闫公路杜北以西,114.443035,38.136312,311,住宅区,12,10,小区,0,4,14
309,B2094750D564A6FE429D,丽都河畔,友谊北大街与古城西路交叉口东南角,114.455824,38.101367,311,住宅区,2,1,小区,15,85,294
310,B2094753DA6EA2F8439E,一街新村,北村宾馆向西,114.468784,38.107328,311,住宅区,0,0,小区,7,94,186
311,B2094753DA6EA1FE4799,梦园小区,前杜北大街9号,114.434688,38.130337,311,住宅区,0,0,小区,2,2,11
312,B2094752D56CA6FA4398,天丽花园,新华区中华北大街与翠屏路交口路西,114.473763,38.11874,311,住宅区,1,1,小区,4,9,119
313,B2094752D56CA4FA4899,誉宏乾院,中华北大街与古城西路交口北行200米路西,114.473007,38.104927,311,住宅区,0,0,小区,14,99,257
314,B2094752D56CABFC4393,平安小镇,正定新区中华大街北沿线西行2公里平安屯村,114.470673,38.19664,311,住宅区,0,0,小区,0,0,0
315,B2094750D56BAAFA4599,奥翔园,友谊大街与古城西路交口西南角,114.453549,38.102009,311,住宅区,0,0,小区,17,62,264
316,B2094750D564A7FC4998,紫金蓝湾,中华北大街与滹沱河北岸交口东北角,114.510241,38.172319,311,住宅区,0,0,小区,1,1,2
317,B2094750D564A6FD4593,鸿名华府,翟营大街与跃进路交叉口西南角,114.523888,38.138742,311,住宅区,0,0,小区,0,4,39
318,B2094750D564A6FE4598,江南鸿郡,中华北大街北沿线滹沱河岸北,114.510155,38.19003,311,住宅区,0,0,小区,0,3,3
319,B2094750D564ABFF439F,金筑香水岸,石家庄新华石清路与杜北大街交叉口西北角,114.437171,38.116652,311,住宅区,0,0,小区,1,11,34
320,B2094750D564ABF8419A,汇君城,石清路以西，景源街以东，石环路以南，武警支队以北,114.439387,38.100675,311,住宅区,3,3,小区,9,43,135
321,B2094750D564ABF94698,西原泓郡,元氏常山路与向阳街交口南行80米路东,114.510498,38.164795,311,住宅区,0,0,小区,0,1,2
322,B2094750D564A4F54799,龙宫花苑,正定新区藁城市机场路和正无路交叉口北行500米路东,114.703291,38.281313,311,住宅区,0,0,小区,3,59,61
323,B209475DD768A5FA429A,金鱼家园,赵县新商业中心,114.77623,37.757144,311,住宅区,0,0,小区,73,140,140
324,B209475DD768A4FE479E,福美公馆,赵县柏林大街与李春大道交叉口西北角,114.783568,37.765965,311,住宅区,1,1,小区,15,69,140
325,B2094656D365A6FA449D,宋营花园新村,秦岭大街与湘江道交叉口,114.63057,38.03011,311,住宅区,86,18,小区,7,37,107
326,B2094656D06CA2FA4598,东仰陵小区,,114.60917,38.00975,311,住宅区,148,54,小区,2,26,89
327,B2094757D56FA2F4469D,苹果城,中国河北省石家庄市区,114.60690186,38.03240723,311,住宅区,91,46,小区,69,100,205
328,B2094656D06CA1FD439D,石炼一区,,114.69158,37.99033,311,住宅区,63,22,小区,2,2,4
329,B2094757D56FA0F8459B,留村东区,中国河北省石家庄市区,114.61847087,38.0407685,311,住宅区,26,11,小区,28,89,133
330,B2094656D06CA3FC4198,旭丰公寓,石家庄胜利北大街和光华路交汇处,114.682,38.02835,311,住宅区,14,4,小区,8,18,18
331,B2094656D365A6FE4698,筑业花园广场B,,114.60349,38.03864,311,住宅区,5,2,小区,45,133,293
332,B2094750D56AA6FA419F,昊城蓝湾,和平路东延307国道与燕山大街交口北行200米吴家营村东,114.653149,38.0512,311,住宅区,17,3,小区,1,5,15
333,B2094750D56AAAF94398,恒大绿洲,槐安路与阿里山大街交叉口(阿里山大街15号),114.66907,38.023281,311,住宅区,418,226,小区,4,14,21
334,B2094750D56BA7F5429C,和合美家,学苑路与天山大街西南角,114.606113,38.015911,311,住宅区,93,39,小区,8,60,128
335,B2094656D364A5F94292,水榭花都,珠峰大街附近,114.60309,38.02631,311,住宅区,2996,1555,小区,47,89,254
336,B2094656D06CA3FD4892,天然城,祁连大街122号(东仰陵村北),114.61531,38.01329,311,住宅区,923,208,小区,0,28,99
337,B2094656D06CA3FD419E,珠峰国际花园,高新开发区珠峰大街180号(与湘江道交口西南角),114.60232,38.02987,311,住宅区,668,214,小区,62,93,276
338,B2094656D365A0F54799,石炼佳园,,114.68783,37.99053,311,住宅区,640,242,小区,2,2,4
339,B2094656D06CA2F44498,星辰花园,,114.61979,38.03526,311,住宅区,272,90,小区,17,101,112
340,B2094656D365A2F4469E,东方城,学苑路23,114.59319,38.01416,311,住宅区,195,59,小区,12,66,259
341,B2094757D56FA6FC4192,花样年华,裕华区湘江大道与秦岭大街交叉口花样年华小区紫薇阁B座3-102(近郝家营),114.62461751,38.03109212,311,住宅区,357,103,小区,14,80,112
342,B2094757D56FA5FC4992,卓达·星辰花园,中国河北省石家庄市区,114.6219987,38.03431885,311,住宅区,52,12,小区,14,95,111
343,B2094656D06CA2F94798,北席小区,,114.68001,38.02434,311,住宅区,142,35,小区,6,18,18
344,B2094656D06CA2F9479E,北邑小区,,114.69698,38.02805,311,住宅区,200,68,小区,2,12,18
345,B2094656D365A4FD4693,天山花园,珠江大道49号,114.60742,38.02405,311,住宅区,81,29,小区,40,87,173
346,B2094750D26CA3FF4698,花香漫城,开发区心海假日东临(珠峰大街和淮河道交叉口东南角),114.60277162153,38.041015811156,311,住宅区,2,1,小区,40,142,299
347,B2094757D56FA3FD4299,居美颐园,槐安路与东二环交口东行1200米路北,114.601092,38.024278,311,住宅区,17,4,小区,45,88,274
348,B2094750D569AAFC479A,丽景湾,天山大街与学苑路交叉口,114.604697,38.011602,311,住宅区,6,4,小区,8,39,108
349,B2094750D56AA3FC479D,天地荣域,天山大街与学苑路交口东行300米路南,114.610784,38.012885,311,住宅区,25,12,小区,4,44,112
350,B2094750D56BA5F9439C,同祥城,中山东路(黄河大道)与祁连街交口北行200米,114.613495,38.050727,311,住宅区,130,86,小区,14,51,152
351,B2094750D564A0F44292,心海湾二期,开发区岗丘路，石炼宾馆斜对面,114.693732,37.999387,311,住宅区,1,0,小区,0,2,5
352,B2094757D56FA2F9489A,天山·枫景(东门),中国河北省石家庄市区,114.65825385,38.03525364,311,住宅区,54,21,小区,1,10,25
353,B2094757D56FA6FF479B,加洲阳光(东门),中国河北省石家庄市区祁连大街,114.61637885,38.00765218,311,住宅区,190,58,小区,1,10,65
354,B2094656D365A1F8419E,康星家园,创业路5号,114.68406,38.03337,311,住宅区,39,20,小区,9,18,18
355,B2094656D365A7FE4198,兴发怡园,创业路开发大街，湘江大道与东三环南行,114.67606,38.028927,311,住宅区,22,6,小区,8,18,19
356,B2094656D365A2F9449F,大江山小区,长江大道26,114.60699,38.03672,311,住宅区,10,5,小区,57,102,206
357,B2094750D56AA0FA479D,石门福地,开发区天山大街与学苑路交口东行380米路南,114.613645,38.012812,311,住宅区,15,6,小区,1,29,105
358,B2094757DA64A3F8479D,花都金街,珠峰大街218号,114.600476,38.025203,311,住宅区,0,0,小区,46,90,292
359,B2094752D26CA2F94593,铁锅一居,裕华区高新区湘江道36号(近河北省第四医院东院区),114.6069,38.03294,311,住宅区,0,0,小区,68,98,206
360,B2094753DA68A5F5489F,盛宏嘉苑,河北省石家庄市开发区学苑路88号,114.64289,38.01358,311,住宅区,18,8,小区,0,4,11
361,B2094753D765A1FA439B,花香漫城,河北省 石家庄市 石家庄市裕华区,114.604202,38.040744,311,住宅区,30,21,小区,43,131,244
362,B2094454D26CAAFF4098,长九中心,珠江大道与天山大街交口东行500米,114.61083413,38.02260466,311,住宅区,0,0,小区,18,84,134
363,B209475DD46EABFA4298,石家庄筑业花园社区,,114.60341,38.03908,311,住宅区,1,1,小区,43,133,294
364,B209475DD768A3FB499A,月珑湾,长江大道与秦岭大街交口北行300米路西,114.628601,38.03889806,311,住宅区,0,0,小区,10,45,107
365,B209475DD768A1F4469D,红石原著小区,天山大街与学苑路交口东行500米路南,114.62561808,38.01180204,311,住宅区,0,0,小区,0,6,71
366,B2094752D56CAAF94699,御江景城,长安区北二环东沿线与赵村桥交口东行500米(石津总干渠北岸),114.627314,38.054985,311,住宅区,0,0,小区,0,24,57
367,B2094750D569AAFF4093,橙色宝邸,石炼佳园对面，工行南侧,114.688221,37.990532,311,住宅区,0,0,小区,2,2,4
368,B2094750D569AAF44692,心海湾,岗丘路，石炼宾馆斜对面,114.694119,37.997203,311,住宅区,0,0,小区,1,2,4
369,B2094750D56AA3FC459E,荣御府,槐安路与祁连大街西北角,114.610466,38.022417,311,住宅区,0,0,小区,18,80,138
370,B2094753DA6FA2FB429B,新港花园,学苑路69号,114.615383,38.014829,311,住宅区,0,0,小区,0,43,103
371,B2094753DA6FA2FB4293,金岗新村,良村富强大街与文明东路交叉口,114.686966,38.047787,311,住宅区,0,0,小区,0,8,18
372,B2094753DA6FA2FB439A,富源城,槐安路与祁连大街交叉口,114.610705,38.022537,311,住宅区,0,0,小区,18,80,136
373,B2094753DA6FA2FB4399,金石花园,天山大街祁连大街交口,114.605148,38.032189,311,住宅区,0,0,小区,66,101,219
374,B2094753DA6FA2FB479A,东方曼哈顿城市广场,天山大街与淮河路交叉口西北角,114.605169,38.041602,311,住宅区,0,0,小区,36,127,225
375,B2094750D569ABFB489A,天山峰尚,珠峰大街218号(闽江大道与珠峰大街交口西南角),114.651688,38.023304,311,住宅区,0,0,小区,0,12,26
376,B2094750D569ABFB4899,加洲阳光,裕华区天山大街东侧(天然城对面),114.622339,38.010542,311,住宅区,0,0,小区,0,8,70
377,B2094750D569AAFE4198,香居美地,创业路3号,114.684005,38.035281,311,住宅区,0,0,小区,9,16,18
378,B2094750D569AAFE4592,芳华怡园,良村岗上村村口路东,114.675343,38.044454,311,住宅区,0,0,小区,4,11,19
379,B2094750D569AAFE479A,御景东城,东三环高架桥西侧300米,114.671152,38.053076,311,住宅区,2,2,小区,0,4,21
380,B2094750D569AAFE489A,风情假日,东开发区天然城东侧1000米,114.611012,38.011536,311,住宅区,0,0,小区,3,31,100
381,B2094750D569AAFF4098,城宇花园,炼油厂生活区工商银行对面,114.680404,37.990548,311,住宅区,0,0,小区,2,2,4
382,B2094750D569AAFF409D,纯粹家园,南村镇,114.640282,38.066877,311,住宅区,0,0,小区,1,3,8
383,B2094750D569AAF9439F,御汤墅,其他区藁城市藁新路6号，石家庄市区以东16公里，307国道东三环口东3公里路北，石津渠畔,114.789139,38.030662,311,住宅区,0,0,小区,0,1,5
384,B2094750D569AAF5449A,天帝城,开发区黄山大街与和平路交叉口北五女村,114.671712,38.052814,311,住宅区,0,0,小区,0,5,21
385,B2094750D569AAF54699,东南雅居,石练生活区附近,114.622339,37.972996,311,住宅区,0,0,小区,0,0,1
386,B2094750D56AA3FE429D,紫苑,学苑路以东宋营镇韩通村,114.640293,38.013478,311,住宅区,0,0,小区,0,4,13
387,B2094750D56AA6FE489A,盛景八方,太行大街与石炼路交口东行八方村西侧,114.652033,37.989128,311,住宅区,2,0,小区,0,0,0
388,B2094750D56AA6F9449A,南豆新村,学苑路与太行大街交口南行500米路西(裕华区职教中心西邻),114.635017,38.008506,311,住宅区,1,0,小区,0,3,15
389,B2094750D56AA6FA449F,东上华府,石津干渠北岸，石家庄经济技术开发区岗上,114.694391,38.045016,311,住宅区,0,0,小区,0,7,16
390,B2094750D56BAAF9469C,阳光华庭,良村开发区岗上镇富强大街,114.699669,38.045387,311,住宅区,0,0,小区,0,7,12
391,B2094750D56BAAF4429D,东湖湾,东二环与学苑路交叉口东南角,114.58251,38.012225,311,住宅区,0,0,小区,23,114,446
392,B2094750D564A7F54299,东上金地,开发区石家庄经济技术开发区岗上桥头直行200米路东,114.696665,38.045658,311,住宅区,0,0,小区,0,7,12
393,B2094753DA6EA5F94693,学苑路69号,学苑路与昆仑大街西北角,114.61916,38.014186,311,住宅区,0,0,小区,0,24,96
394,B2094750D569ABFB459D,东城国际广场,天山大街与淮河路交叉口西北角,114.60754,38.041391,311,住宅区,3,2,小区,36,118,204
395,B2094750D569AAF4489D,新城,开发区太行大街与和平路交叉口北行800米,114.635454,38.048336,311,住宅区,0,0,小区,1,24,53
396,B2094753DA6EA3F5489D,天山阳光印象,天山大街与槐南路交口,114.607701,38.024481,311,住宅区,0,0,小区,43,89,171
397,B2094753DA6EA2FC409B,金石公寓,黄河大道141号,114.616113,38.046469,311,住宅区,0,0,小区,18,63,146
398,B2094753DA6EA2FC409D,卓达星辰银座,长江大道158号,114.63212,38.037124,311,住宅区,0,0,小区,10,34,102
399,B2094753DA6EA2FC449A,岗上新村,开发区外国语职业学院西侧,114.685013,38.046021,311,住宅区,0,0,小区,2,11,16
400,B2094753DA6EA2FC459F,凝瑞苑,东三环炼油厂生活区三环入口处,114.678597,37.994945,311,住宅区,0,0,小区,1,2,4
401,B2094753DA6EA2FD4692,美新公寓,和平路619号与秦岭大街交叉口,114.628301,38.048581,311,住宅区,0,0,小区,10,33,80
402,B2094753DA6EA2F8459B,湘江花苑,裕华区湘江道150号,114.628311,38.0318,311,住宅区,0,0,小区,16,55,108
403,B2094753DA6EA2F84792,天瑞福地,星辰广场东南方向,114.652033,38.034538,311,住宅区,0,0,小区,1,13,32
404,B2094753DA6EA2F9409A,三环新城,岗邱路与石炼北路交口,114.684734,38.011481,311,住宅区,0,0,小区,2,5,17
405,B2094753DA6EA2F9409C,东城郦景,区东三环高架桥西侧,114.67113,38.053346,311,住宅区,0,0,小区,0,4,18
406,B2094753DA6EA2F9419C,博仕名筑,天山大街199号,114.609461,38.025698,311,住宅区,0,0,小区,46,91,158
407,B2094753DA6EA2F94393,大有东苑,炼北路与岗邱路交口,114.678233,38.033743,311,住宅区,0,0,小区,10,16,19
408,B2094753DA6EA2F9469C,天山水榭花都,珠峰大街218号,114.602337,38.026433,311,住宅区,3,3,小区,47,88,272
409,B2094753DA6EA2F94992,丽景沁园,良村岗上村,114.645875,38.047348,311,住宅区,1,0,小区,2,8,36
410,B2094753DA6EA2FA429B,香槟小郡,珠江大道与秦岭大街交口,114.609375,38.024701,311,住宅区,0,0,小区,40,89,150
411,B2094753DA6EA2FB419D,康乐公寓,杨子路西头路北,114.690485,38.046672,311,住宅区,0,0,小区,0,8,16
412,B2094753DA6EA2FB4793,旭丰惬意空间,扬子路6号,114.680378,38.028538,311,住宅区,0,0,小区,11,18,18
413,B2094753DA6EA2F44599,春龙大厦,长江大道13号,114.605545,38.037943,311,住宅区,0,0,小区,54,124,217
414,B2094753DA6EA2F4489A,卓达星河国际,长江大道158号,114.623408,38.03834,311,住宅区,0,0,小区,23,74,108
415,B2094753DA6EA2F44993,水榭花都别墅,珠峰大街与槐安路交叉口,114.594548,38.023873,311,住宅区,12,4,小区,25,121,371
416,B2094753DA6EA2F5439F,弘达眀尚,槐安路与京珠高速交叉口,114.594054,38.022571,311,住宅区,0,0,小区,20,114,363
417,B2094753DA6EA1FE4598,炼油厂一区,邱头镇邱头村,114.66774,37.983547,311,住宅区,0,0,小区,0,2,2
418,B2094753DA6EA1FE4992,卓达星辰一号,长江大道158号,114.655166,38.038222,311,住宅区,1,0,小区,1,11,32
419,B2094753DA6EA1F8419E,润达小区,石炼佳园院内,114.687653,37.990751,311,住宅区,0,0,小区,2,2,4
420,B2094753DA6EA1F8419D,百合大厦,开发区黄河大道与天山大街交叉口北行100米路东,114.608528,38.048507,311,住宅区,0,0,小区,9,69,201
421,B2094753DA6EA1F8429A,怡景园,万泉道与秦岭大街交口,114.630114,38.017212,311,住宅区,0,0,小区,2,8,74
422,B2094753DA6EA1F84299,好家园,东北部湘江道169号,114.633086,38.034555,311,住宅区,0,0,小区,11,32,101
423,B2094750D56BA1FC4998,想象国际,珠峰大街与珠江大道交口东北角,114.604847,38.024566,311,住宅区,2,3,小区,47,89,206
424,B2094750D56BA7FA419B,柠檬郡,中山东路与天山大街交叉口北行1000米(路西),114.607186,38.045354,311,住宅区,1,1,小区,24,108,202
425,B2094750D56BA7FA4499,珠峰国际花园三期,珠峰大街与湘江道交叉口南行100米路西,114.599934,38.030177,311,住宅区,1,0,小区,59,106,343
426,B2094750D56BA6F44199,辰溪苑,天山大街与南二环东沿线交口西南,114.60892,38.006037,311,住宅区,0,0,小区,2,14,76
427,B2094750D56BABF94892,德隆品苑,创业路(湘江道)与开发大街交叉口南行100米,114.684026,38.034124,311,住宅区,0,0,小区,9,16,18
428,B2094750D564A3FF4492,弘达明尚,槐安路与东二环交口东1000米路南,114.594054,38.022571,311,住宅区,0,0,小区,20,114,363
429,B2094750D564A1F8449E,旭东花园,段高路与昆仑大街交口东北角,114.628773,37.969102,311,住宅区,0,0,小区,0,1,1
430,B2094750D564A0FA499E,长江道壹号,开发区长江大道(裕华路东延线)第一排,114.647141,38.037276,311,住宅区,1,1,小区,3,10,41
431,B2094750D564A0F4469C,IPC南村湾,南村镇,114.644394,38.0635,311,住宅区,1,0,小区,2,3,7
432,B2094750D564A7FB4393,凡尔赛私邸,凡尔赛私邸位于石家庄高新技术开发区，紧邻石家庄城市轴线槐安路,114.609504,38.023315,311,住宅区,0,0,小区,32,85,141
433,B2094750D564A5FF4592,雍雅锦江,开发区天山大街和学苑路交叉口的东北角,114.609715,38.014198,311,住宅区,0,0,小区,4,47,114
434,B2094750D564A5F54493,紫睿天和,槐安东路与东二环交口东行1000米路北,114.59959,38.02585,311,住宅区,0,0,小区,45,94,304
435,B2094750D564A5F8449E,新都汇,黄河大道与珠峰大街交叉口东行100米路北,114.602584,38.044754,311,住宅区,0,0,小区,25,133,283
436,B2094656D364A1FF469D,四明花园,四明南街058,114.84772,38.02441,311,住宅区,263,88,小区,75,164,168
437,B2094656D365A1FD419A,龙湾·帝景,,114.85768,38.01618,311,住宅区,368,203,小区,14,87,167
438,B2094656D365A0F4479A,盛业花园,,114.85888,38.02503,311,住宅区,59,10,小区,55,150,167
439,B2094656D365A4FC479E,天瑞嘉园,,114.85131,38.02568,311,住宅区,6,1,小区,74,165,168
440,B2094656D364A2F44998,世纪花园(市府西路),,114.8464,38.03592,311,住宅区,69,33,小区,81,156,168
441,B2094757DB68A2FA459C,广泰花园,广泰花园,114.8569686,38.024149,311,住宅区,26,12,小区,58,157,167
442,B2094656D365A7FE479B,府东园,,114.84822,38.02289,311,住宅区,15,5,小区,63,163,168
443,B2094656D364A2FD4993,中天小区,,114.83802,38.03137,311,住宅区,25,12,小区,37,148,168
444,B2094656D364A1FC419E,福欣,,114.83094,38.02114,311,住宅区,24,10,小区,13,73,155
445,B2094656D364A1FD479C,建行生活小区,,114.84275,38.02044,311,住宅区,23,12,小区,36,143,168
446,B2094656D364A1FF479F,四明建鹏小区,,114.84774,38.02356,311,住宅区,4,0,小区,68,164,168
447,B2094750D56AA6FC419F,大有容园,藁城市站南街与廉州路交口南行100米,114.85398,38.020526,311,住宅区,10,2,小区,38,147,167
448,B2094753DA6EA2FE4498,雅筑2008,石炼生活二区附近,114.846954,38.016181,311,住宅区,0,0,小区,27,103,168
449,B2094750D569AAFE4398,旭丰惬意空间,良村经济技术开发区扬子路6号,114.847543,38.021726,311,住宅区,0,0,小区,53,159,168
450,B2094750D569AAF84398,三环明珠,其他区蒿城市岗邱路与石炼北路交口东南角,114.847073,38.021676,311,住宅区,0,0,小区,52,159,168
451,B2094750D569AAF9499A,国大御温泉渡假小镇,近郊藁城市藁新路6号,114.778162,38.030741,311,住宅区,3,2,小区,1,1,1
452,B2094750D56BA0FB469A,御汤墅国粹,307国道东三环东行六公里路北(石家庄藁城市藁新路8号),114.766874,38.035505,311,住宅区,0,0,小区,0,1,2
453,B2094750D56BABFE419B,龙华苑,藁城市四明街与育才路交口南侧(原西刘村),114.848285,38.01444,311,住宅区,0,0,小区,19,83,167
454,B2094656D365A6FD419C,府东小区,,114.84825,38.02233,311,住宅区,20,3,小区,57,162,168
455,B2094656D364A2FF4693,校南第四安全小区,,114.8566,38.03188,311,住宅区,45,17,小区,81,157,167
456,B2094656D364A1FD479A,丰园小区,通安街201,114.84288,38.01899,311,住宅区,39,16,小区,35,127,168
457,B2094656D368A0FA489B,银山花园,鹿泉市向阳北大亍,114.31385,38.091297,311,住宅区,363,146,小区,22,47,52
458,B2094656D368A0FB439F,小区(海山大街),,114.3285,38.08739,311,住宅区,106,14,小区,17,51,52
459,B2094656D06CA3FD499E,西简良小区,石获南路与西二环北路交叉口,114.40858,38.06182,311,住宅区,206,60,小区,10,40,111
460,B2094757D56FABFD459E,石家庄长兴大学生公寓,中国河北省石家庄市区,114.40935845,38.04856391,311,住宅区,798,371,小区,27,54,210
461,B2094750D36FA2FC4599,奇石花园,新开路与向阳大街交叉口，东行200米,114.323265,38.09383,311,住宅区,18,8,小区,17,41,51
462,B2094757D56EAAF54999,朗润园,中山西路,114.32380724,38.08858941,311,住宅区,11,1,小区,30,50,51
463,B2094757D56FA1FD4798,水域南岸天马新庭院(北门),中国河北省石家庄市区,114.4098641,38.09309163,311,住宅区,31,20,小区,0,4,18
464,B2094757D56FA1FB489F,馨香苑,中国河北省石家庄市区,114.39806668,38.08932237,311,住宅区,37,22,小区,2,9,16
465,B2094757D56FA6F9489B,阳光小郡,中国河北省石家庄市区,114.40952148,38.06186225,311,住宅区,107,48,小区,10,43,116
466,B2094757D56FA5FF4099,岳泰明珠,中国河北省石家庄市区,114.4004628,38.08512167,311,住宅区,112,36,小区,0,5,20
467,B2094757D56FA0F5499F,康庄小区,中国河北省石家庄市区,114.3895969,38.07911675,311,住宅区,79,37,小区,3,8,21
468,B2094757D56FA3FC409E,秀水·归墅,植物园路与石太高速交叉口南行100米(植物园南侧、秀水公园西门),114.3834689,38.08958,311,住宅区,18,7,小区,3,10,14
469,B2094757D56FA1FF4492,瑞泰澜庭(东北门),中国河北省鹿泉市,114.37139242,38.071604,311,住宅区,98,8,小区,4,7,17
470,B2094757D56FA2FF459D,鑫泽苑,建东街15,114.42053087,38.05832004,311,住宅区,344,150,小区,11,95,392
471,B2094656D06CA1FF479D,南郭小区,中山西路与长兴街交叉口,114.40878,38.05203,311,住宅区,61,38,小区,27,48,189
472,B2094656D06CA2FD4398,君苑小区,中山西路777路,114.41428,38.04875,311,住宅区,229,119,小区,29,67,339
473,B2094757D56FA2F4479B,水域南岸天马新庭院,中国河北省石家庄市区,114.40926975,38.09310764,311,住宅区,53,32,小区,0,4,18
474,B2094757D56FA5F8489E,四季凤凰城,植物园西侧800米,114.346149,38.09561,311,住宅区,16,5,小区,0,10,43
475,B2094757D56FA4FE459D,林溪小镇,植物园北侧,114.3787028,38.11196018,311,住宅区,15,6,小区,0,5,9
476,B2094750DA6BAAFD449E,西山别墅,,114.318962,38.08712,311,住宅区,0,0,小区,31,47,52
477,B2094751DA64A3FD4393,朝阳小区,河北省鹿泉市,114.315865,38.088527,311,住宅区,1,0,小区,26,47,52
478,B2094757D56FA3FB4693,孔寨小区,中国河北省石家庄市区,114.39819,38.059097,311,住宅区,62,27,小区,5,34,66
479,B2094750D569A6FE4692,水印城,和平西路518号(植物园街与和平路交口),114.411964,38.078906,311,住宅区,65,18,小区,0,7,62
480,B2094750D569AAFE449A,安联星朗,其他区鹿泉中山路西联合大学城,114.310935,38.082809,311,住宅区,4,2,小区,18,46,52
481,B2094750D569AAFE4499,龙海南苑,鹿泉新华西路与海山大街交口西100米路北,114.3119,38.083795,311,住宅区,3,0,小区,18,47,52
482,B2094757D56EAAF4489D,馨香苑(东门),中国河北省石家庄市区,114.39839084,38.08931559,311,住宅区,0,0,小区,2,9,17
483,B209475DD768A1FD419F,君悦国际,和平路与西二环交口西行1千米路北,114.42046179,38.06998518,311,住宅区,0,0,小区,7,40,227
484,B209475DD768A6F4469A,香橼墅,石家庄市植物园西行1000米,114.355488,38.102144,311,住宅区,0,0,小区,0,1,12
485,B209475DD768ABFC4899,国源和天下,新华区和平路西延线与植物园街交叉口北行500米路西,114.40569924,38.08708066,311,住宅区,1,1,小区,0,5,23
486,B2094753D26DA2FA429C,良兴美嘉城,桥西区新华路与建东街交口北行300米,114.41338233961,38.05418089788,311,住宅区,0,0,小区,11,59,230
487,B2094750DB6EAAFD429F,西部峰景,新华路与向阳大街交叉口北行150米路西,114.316392,38.081576,311,住宅区,3,2,小区,24,49,53
488,B2094753DA6FA2FB429D,南郭花园,长兴街18号,114.405141,38.052113,311,住宅区,7,6,小区,24,43,113
489,B2094753DA6FA2FB459B,南简良小区,新华路与西二环交叉口,114.418874,38.055931,311,住宅区,1,1,小区,9,104,378
490,B2094753DA6FA2FB499A,南郭新城,新华路车管所东行100米,114.393959,38.067951,311,住宅区,0,0,小区,4,14,48
491,B2094752D56CABF9499D,幸福城,石家庄市桥西区车管一所对面,114.397159,38.063534,311,住宅区,6,4,小区,5,16,56
492,B2094752D56CABF54492,太行轩圃,槐安路山前大道南五峰山下,114.307723,38.089479,311,住宅区,0,0,小区,20,40,49
493,B2094750D569A6FE479D,秀水名邸,植物园路与石太高速交叉口南行100米,114.387159,38.089445,311,住宅区,0,0,小区,3,10,15
494,B2094750D569AAFC429B,龙泉花园(三期),鹿泉槐安路与获铜路交口南500米,114.311394,38.08366,311,住宅区,0,0,小区,18,47,52
495,B2094750D569AAFC4299,大湖之翼,其它区蟠龙湖旅游区南岸坝口前行6千米,114.310692,38.082447,311,住宅区,0,0,小区,18,46,52
496,B2094750D56BA7F54898,天铭怡港,鹿泉市石家庄理工职业学院东门西行50米(25路终点站对面),114.331326,38.087148,311,住宅区,0,0,小区,17,51,52
497,B2094750D564A7F4439C,福麟苑,鹿泉市北斗路与翠屏大街交叉口北行200米路西,114.306564,38.089006,311,住宅区,0,0,小区,17,37,49
498,B2094750D564A6FD499E,百岛绿城,植物园路与石环北路交叉口东南侧,114.389348,38.090391,311,住宅区,19,9,小区,3,10,14
499,B2094750D564A5FF4893,华普城,桥西新华路车管所西行300米路南,114.408531,38.05708,311,住宅区,1,0,小区,11,45,127
500,B2094750D564ABF94493,棕榈湾,鹿泉市新华路与西三环交汇处往西500米路南,114.360741,38.07896,311,住宅区,3,2,小区,0,6,29
501,B2094757D56EAAF94598,园丁小区(鹿泉市地址矿产局居民小区西北),中国河北省鹿泉市,114.31291965,38.09699165,311,住宅区,13,9,小区,10,33,48
502,B2094757D56FA7F4439B,园丁小区(南门)(鹿泉市地址矿产局居民小区西北),中国河北省鹿泉市,114.31293783,38.0968297,311,住宅区,0,0,小区,10,33,48
503,B2094757D56FABFD4398,鹿泉市地质矿产局居民小区(北门),中国河北省鹿泉市,114.31305718,38.09654948,311,住宅区,3,2,小区,11,34,48
504,B2094750D569ABFF439F,良兴嘉园,新华路与建东街交叉口北行200米,114.415569,38.055255,311,住宅区,0,0,小区,12,75,265
505,B2094750D569ABFF449F,上城水岸,杜北乡上京村毗卢寺对过,114.418831,38.061608,311,住宅区,0,0,小区,10,62,301
506,B2094750D569ABF5459A,奥克兰风情小镇,槐安路西行至山前大道北行3公里,114.310881,38.083726,311,住宅区,3,3,小区,18,47,52
507,B2094750D569AAFC449B,帝华南苑,其他区鹿泉新华路与海山大街交口西100米路北,114.311096,38.082945,311,住宅区,0,1,小区,19,47,52
508,B2094750D569AAFC4593,西环青年汇,其它区域石家庄西三环与新华路西沿线交口西北处,114.408016,38.058099,311,住宅区,0,0,小区,9,44,121
509,B2094750D569AAFE439E,名仕苑,其他区鹿泉北斗路中段建行对面,114.311849,38.083919,311,住宅区,0,0,小区,20,47,52
510,B2094750D569AAF8409B,弗莱明戈,鹿泉槐安西路与山前旅游大道交汇处北行200米,114.310456,38.083848,311,住宅区,0,0,小区,18,46,52
511,B2094750D569AAF94892,碧水阳光,新华区植物园路与北二环西沿线交叉口处的大马村,114.399858,38.079368,311,住宅区,0,0,小区,1,9,31
512,B2094750D569AAFB429E,神奇庭院,新华路与西三环交汇处,114.381065,38.068501,311,住宅区,0,0,小区,3,10,20
513,B2094750D56AA6FA4799,景祥苑,桥西区新华西路车管所东侧,114.402759,38.059775,311,住宅区,0,0,小区,8,36,75
514,B2094750D56BA2FB459F,嘉宇枫尚,和平路与植物园路交叉口北行800米路北大马村,114.40557,38.088499,311,住宅区,0,0,小区,0,4,23
515,B2094750D56BA5FF499A,良城逸园,新华西路与长兴街交口北行300米路西,114.407845,38.058837,311,住宅区,4,2,小区,9,41,118
516,B2094750D564A6FB4899,竹境,石获南路与长兴街交口西南角,114.408317,38.057013,311,住宅区,1,1,小区,11,44,124
517,B2094750DB6EAAFD4199,石桥润泽园,市车管一所斜对面石获南路路北,114.398575,38.062554,311,住宅区,3,2,小区,4,17,61
518,B2094753DA6EA3F5449B,城东小区,鹿泉市海山大街与镇宁路交叉口,114.31577,38.087689,311,住宅区,1,0,小区,27,47,52
519,B2094753DA6EA2FC4592,奥斯卡纳,石获北路与西三环交叉口,114.375787,38.102245,311,住宅区,0,0,小区,2,8,9
520,B2094753DA6EA2FC489D,水玲珑,庄院路259号,114.322743,38.082318,311,住宅区,0,0,小区,35,51,52
521,B2094753DA6EA2FD4392,南简良东区,建东街7号,114.414765,38.060763,311,住宅区,0,0,小区,11,50,243
522,B2094753DA6EA2FE439A,康达花园,康庄旧村,114.387674,38.080494,311,住宅区,0,0,小区,3,8,21
523,B2094753DA6EA2FE469C,康馨花苑,和平西路康庄村北,114.387116,38.093194,311,住宅区,4,3,小区,6,9,12
524,B2094753DA6EA2F84098,岳村新村,植物园南侧,114.325147,38.093988,311,住宅区,5,2,小区,14,41,51
525,B2094753DA6EA2F84892,龙海花园,海山大街与平路交叉口,114.325018,38.086355,311,住宅区,1,1,小区,28,51,51
526,B2094753DA6EA2F94493,银泉花园,鹿泉市原动物园南行1000米,114.412093,38.042295,311,住宅区,0,0,小区,32,61,341
527,B2094753DA6EA2FA4593,月容和庄,植物园西侧,114.375787,38.102043,311,住宅区,1,0,小区,2,8,9
528,B2094753DA6EA2F4429B,欧特花园,和平西路与西外环交叉口,114.3857,38.075342,311,住宅区,0,0,小区,3,11,23
529,B2094753DA6EA1FE4298,原乡,石家庄植物园南侧,114.382643,38.09723,311,住宅区,0,0,小区,7,8,11
530,B2094753DA6EA1FE449A,岳村花园,植物园路岳村,114.39394,38.097787,311,住宅区,4,0,小区,6,8,12
531,B2094753DA6EA1FE4493,华西新村,西二环与新华路交口,114.413252,38.047077,311,住宅区,0,0,小区,32,64,333
532,B2094753DA69A7FC4599,水域南岸,和平西路第四空军学院附近,114.398704,38.095356,311,住宅区,0,0,小区,2,8,13
533,B2094757D56FA1FD489D,凌透花园(西门),中国河北省石家庄市区,114.59957275,38.07698676,311,住宅区,3,0,小区,0,37,69
534,B2094757D56FA5FD499D,凌透花园,中国河北省石家庄市区,114.600102,38.07722792,311,住宅区,58,23,小区,0,35,65
535,B2094751DB6FA3FE4893,啤酒花园(体育场店),长安区裕彤体育场,114.58622,38.07054,311,住宅区,1,0,小区,42,71,190
536,B2094656D365A3FE449F,东方怡园,西兆通,114.60796,38.074837,311,住宅区,4,0,小区,0,15,49
537,B209475DD768A4FD419D,紫林湾,石津路和石兆街交叉口的东北角,114.601135,38.060662,311,住宅区,0,0,小区,0,29,212
538,B209475DD768ABFE4093,长瑞上城,长安区和平路与东二环交口东行1500米路南,114.598045,38.053228,311,住宅区,0,0,小区,2,100,306
539,B2094750D564A3FD489E,香水湾,正定新区滹沱河南岸西兆通镇石丰路与石兆街交叉口西北角,114.613366,38.075832,311,住宅区,19,10,小区,0,1,35
540,B2094750D564A3FF4892,晨馨花园,藁城南董镇,114.774513,38.102684,311,住宅区,0,0,小区,0,0,4
541,B2094753DA6EA2FF4193,桃园名居,南村镇侯帐村,114.664843,38.09061,311,住宅区,0,0,小区,0,0,3
542,B2094753DA6EA2FF4792,店上翠城,西兆通镇店上村,114.614503,38.092282,311,住宅区,1,0,小区,1,1,2
543,B2094753DA6EA2F8489A,外贸食品宿舍,和平路555号,114.600953,38.055526,311,住宅区,0,0,小区,1,63,247
544,B2094752D56CA6FB4793,众和嘉苑,和平路与东二环交叉口东行800米路南,114.597788,38.053059,311,住宅区,0,0,小区,2,105,308
545,B2094752D56CA4F84799,紫苑二期,石家庄开发区学院路以东宋营镇韩通村,114.632034,38.016993,311,住宅区,0,0,小区,2,7,64
546,B2094752D56CA4F9479D,石家庄主语城,开发区太行大街与学苑路交口西南角,114.63933,38.013409,311,住宅区,2,1,小区,0,4,16
547,B2094752D56CA4FB4998,安联生态城,长安区东二环与北二环交汇处东侧,114.582939,38.066744,311,住宅区,0,0,小区,41,96,306
548,B2094750D569A0F8469C,怡景苑,滹沱河南岸西兆通镇,114.598045,38.074987,311,住宅区,0,0,小区,1,40,76
549,B2094750D56BA0F9499E,枫林小镇,和平路与石兆街交口北行500米路西,114.598929,38.061811,311,住宅区,0,0,小区,0,33,213
550,B2094750D56BA7F5439C,新南家园,太行大街与和平路交叉口北行800米路东,114.638804,38.047084,311,住宅区,2,2,小区,3,23,50
551,B2094750D56BA6FE479F,天山熙湖小区,昆仑大街与湘江道交口东南角,114.620622,38.032391,311,住宅区,2,2,小区,14,99,111
552,B2094750D56BA4F84293,东城国际商务中心,东开发区天山大街与黄河大道交汇处西南角,114.607186,38.043833,311,住宅区,2,1,小区,30,112,201
553,B2094750D564A1F9409F,河北大厦,天山大街与黄河大道交汇处沿黄河大道东行100米路北,114.610748,38.045725,311,住宅区,0,0,小区,25,78,182
554,B2094750D564A1F54393,馨悦小镇,长安区东北二环交叉口紧邻二环,114.582596,38.06742,311,住宅区,0,0,小区,46,89,303
555,B2094750D564A0FA439A,国风,长安区和平路与东二环交口东行1500米路北,114.606683,38.055303,311,住宅区,0,0,小区,0,38,198
556,B2094750D564A0FB459A,日中天创新科技园,天山大街与建华东路交口东南角,114.608688,38.050795,311,住宅区,0,0,小区,6,52,211
557,B2094656D369A6FB419E,联邦名都,裕华西路166,114.48132,38.03363,311,住宅区,1018,412,小区,331,1247,2729
558,B2094656D364ABFD459F,东岗怡园(建设南大街),槐安东路96,114.51494,38.02137,311,住宅区,1276,539,小区,237,1025,2652
559,B2094656D06CA2FB499B,尹泰花园,红旗大街与南二环交叉口南行二站地,114.46607,37.99098,311,住宅区,1269,595,小区,23,113,389
560,B2094656D365A2F9469C,众美·凤凰城,长安区和平路和广安大街交叉口北侧,114.549997,37.998983,311,住宅区,2899,1355,小区,34,229,706
561,B2094656D364A4FA419A,春江花月(新石中路),石家庄市桥西区新石中路166号,114.46872813607216,38.01329858542535,311,住宅区,2593,980,小区,226,552,1237
562,B2094656D06CA3F8489D,盛世天骄,石家庄胜利北大街和光华路交汇处,114.45971,38.04882,311,住宅区,2313,1080,小区,208,1127,2245
563,B2094656D365A7FA409B,世纪花园(东岗路),东岗路75,114.53995,38.01592,311,住宅区,1230,653,小区,271,1053,1799
564,B2094656D06CA3F84593,绿家小区,建通街与南二环交叉口南行200米,114.50311,37.993729,311,住宅区,345,150,小区,5,82,374
565,B2094757D56EAAF54292,开元先天下,育才街58号,114.52642443,38.04110379,311,住宅区,172,60,小区,484,1884,3394
566,B2094656D369A7FE4492,华夏家园,桥东区东风路,114.49747,38.02315,311,住宅区,649,283,小区,207,892,2694
567,B2094656D06CA3FD4799,中央悦城,中山路与大经街交叉口西行100米路南,114.5274,38.03003,311,住宅区,420,190,小区,383,1663,3400
568,B2094656D365ABF84292,金裕花园,石家庄桥西区南长街,114.48318,38.03732,311,住宅区,273,128,小区,531,1351,2903
569,B2094757D56FA1F4419A,河北医大二院,中国河北省石家庄市区中华北大街,114.47804091,38.05879829,311,住宅区,254,58,小区,327,1191,2432
570,B2094656D365A4F44692,富强电力小区(富强大街),富强大街149号,114.52369,38.01943,311,住宅区,187,53,小区,267,1112,2444
571,B2094656D365ABF8429E,金正缔景城,石家庄市桥西区工农路255号,114.4741946938658,38.032977394306,311,住宅区,4274,1477,小区,287,1183,2591
572,B2094656D368AAFA479B,万信城市花园,石家庄北城路35号,114.4584,38.07356,311,住宅区,951,400,小区,154,617,1199
573,B2094656D365A2FF4293,名门华都,长安区和平路和广安大街交叉口北侧,114.5221,38.05439,311,住宅区,664,364,小区,379,1456,2685
574,B2094656D36AA5F4439E,博雅庄园,光华路9号,114.50729,38.05915,311,住宅区,824,253,小区,280,1301,2839
575,B2094656D06CA3FE4398,留营华苑,开泰街20号,114.43232,38.05715,311,住宅区,964,378,小区,43,287,815
576,B2094757D56FA5FD499B,汇景家园·棉二生活区,谈南路2,114.51922987,38.04632894,311,住宅区,635,213,小区,845,1762,3049
577,B2094656D365A4FA409E,自由港公寓,和平东路20号,114.49837,38.05344,311,住宅区,483,176,小区,199,1739,3262
578,B2094757D069AAFA4799,一茶一座(先天下店),石家庄中山东路326号北国先天下购物广场三楼,114.52704161,38.042135703,311,住宅区,114,48,小区,503,1922,3384
579,B2094656D365A4FA429F,省直玉成小区,城角街726,114.44375,38.01361,311,住宅区,556,240,小区,98,476,961
580,B2094656D364A4FF4393,河北省委宿舍(师范街),师范街47,114.46693,38.03658,311,住宅区,352,142,小区,235,1242,2459
581,B2094656D364ABF54799,君晓家园,槐安路二环交叉口往西(仓安综合市场对面),114.43072,38.02478,311,住宅区,843,299,小区,61,430,872
582,B2094656D369A1FF4692,西里小区(裕华西路),裕华西路118,114.45563,38.0343,311,住宅区,764,320,小区,275,915,2153
583,B2094656D365ABF84993,碧水青园,长安区和平路和广安大街交叉口北侧,114.51727,38.01521,311,住宅区,506,273,小区,209,865,1760
584,B2094757D168A5F8459E,燕港新村,河北省石家庄市育才街328号,114.52634806,38.013122143,311,住宅区,744,392,小区,220,860,1751
585,B2094656D06CA1FE499E,青园小区,富强大街150号,114.51812,38.01666,311,住宅区,848,416,小区,245,923,2158
586,B2094656D364A4FD439E,中国电子科技集团公司第五十四研究所生活区(中山西路),中山西路491号,114.44764,38.04282,311,住宅区,953,348,小区,294,742,1693
587,B2094656D364AAFD4792,北苑别墅(变电街),变电街16,114.44076,38.06927,311,住宅区,1248,642,小区,69,286,754
588,B2094656D365A5F44892,海天·阳光园,翟营大街458,114.55519,37.99703,311,住宅区,582,183,小区,25,124,512
589,B2094656D365A4F4449F,顺美华庭(城角街),桥西区槐安西路与城角街交叉口,114.44322,38.02316,311,住宅区,1141,538,小区,183,668,1174
590,B2094757D16EA1FA4699,万隆国际,裕华东路和育才街交汇处西南,114.525767764,38.0349287369,311,住宅区,513,257,小区,412,1921,3482
591,B2094656D368A4FE459E,御景园,光华路7号,114.50457,38.06001,311,住宅区,441,197,小区,230,1167,2881
592,B2094656D36AA3F54193,西焦城市花园,新华路591,114.45429,38.04895,311,住宅区,472,201,小区,204,944,2126
593,B2094656D365AAF44692,联盟小区,联盟路与友谊大街交叉口,114.44958,38.07564,311,住宅区,491,229,小区,126,371,901
594,B2094656D365A0F4439F,棉七生活区,桥东裕华路,114.49801,38.03422,311,住宅区,243,57,小区,291,1756,3325
595,B2094656D06CA2F9499A,滨河新城,滨河街8号！,114.46977,37.99967,311,住宅区,231,64,小区,59,328,577
596,B2094656D06CA2F44392,旭城花园,南二环与滨河街交叉口,114.46907,38.00331,311,住宅区,337,103,小区,96,406,696
597,B2094656D368ABF5409D,中华绿园,红军大街69,114.47433,38.06695,311,住宅区,432,151,小区,232,899,1874
598,B2094656D365A0FE4899,中国电子科技集团公司第五十四研究所生活区(侧门),,114.44415,38.04864,311,住宅区,339,180,小区,208,658,1482
599,B2094656D365A0F54193,河北省公安厅(西)生活区,友谊北大街48,114.45105,38.04447,311,住宅区,403,71,小区,194,847,2007
600,B2094656D06CA3F9419D,财富商业中心,石家庄广安大街24号,114.52158,38.05146,311,住宅区,68,15,小区,500,1547,2854
601,B2094656D364A4F94492,十三所生活区(新合街),新合街106,114.45574,38.05303,311,住宅区,98,28,小区,215,877,2080
602,B2094656D365A5FA429F,泰华园东区,泰华街与朝阳路交叉口,114.46037,38.06873,311,住宅区,427,198,小区,205,719,1393
603,B2094656D06CA3FF419E,碧水蓝湾,西三环与南二环西延线交叉口,114.4359,38.00626,311,住宅区,124,42,小区,4,136,557
604,B2094656D06CA3F94792,开泰小区,保龙仓北行300米,114.42553,38.06065,311,住宅区,465,311,小区,15,115,506
605,B2094656D06CA3F94798,君苑花园,,114.41841,38.0478,311,住宅区,434,197,小区,27,141,460
606,B2094656D36BABFD409D,核四院生活小区(兴苑街),兴苑街66,114.53633,38.02387,311,住宅区,184,86,小区,502,1179,2683
607,B2094656D06CA3F9409D,阳光新城,建华大街南头交南二环外,114.55248,37.9853,311,住宅区,112,57,小区,2,30,129
608,B2094656D365A5FE4099,滨河小区颐宁苑(滨河街),新石中路168,114.46466,38.01232,311,住宅区,150,41,小区,246,578,1125
609,B2094656D365A5FF439C,北苑小区(变电街),变电街19,114.44126,38.0696,311,住宅区,130,55,小区,76,303,766
610,B2094656D364ABFE429D,平安生活小区南区,建胜路平安南大街交口,114.5064,38.01754,311,住宅区,177,62,小区,235,734,2125
611,B2094656D365A5FD4593,方北新村(体育南大街),,114.5337,38.03361,311,住宅区,442,159,小区,355,1745,3328
612,B2094656D364ABF9489E,旭景琴园(建通街),建通街16号,114.50525,38.0107,311,住宅区,176,63,小区,162,547,1150
613,B2094656D06CA3FF469B,风尚水郡,石家庄胜利北大街和光华路交汇处,114.54835,38.0014,311,住宅区,132,52,小区,46,290,816
614,B2094757D56FA4FD429C,北杜花园(西门),中国河北省石家庄市区时光街,114.42862386,38.02786268,311,住宅区,180,86,小区,63,396,818
615,B2094656D365A1F44993,滨湖小区(滨华路),滨华路9,114.46641,38.06932,311,住宅区,167,65,小区,188,816,1522
616,B2094656D365A4F4479D,北苑别墅(西门),西二环北路299,114.43767,38.06964,311,住宅区,101,37,小区,51,270,690
617,B2094656D365A4F4499E,合作小区北区(国泰街),,114.4398,38.06018,311,住宅区,102,20,小区,85,366,1000
618,B2094656D365ABFC449C,盛邦华庭梅林园,维明街与新石南路交叉口北行50米,114.46926,38.00843,311,住宅区,175,67,小区,204,468,949
619,B2094757D56FABF4459E,泊爱家园,石家庄胜利北大街和光华路交汇处,114.4381906,38.03161278,311,住宅区,78,18,小区,212,665,1111
620,B2094656D368AAF8479B,滨湖新村(泰华街),泰华街水上公园东门,114.46475,38.07455,311,住宅区,290,131,小区,170,677,1298
621,B2094656D365A5FB419F,华兴小区(东岗路),东岗路42,114.53761,38.01542,311,住宅区,493,161,小区,247,1052,1798
622,B2094656D365ABF84392,棉一小区,建设北大街113,114.5139,38.05181,311,住宅区,142,37,小区,512,1722,2897
623,B2094656D365A1F8479E,嘉实蓝岸,长安区和平路和广安大街交叉口北侧,114.54174,38.0331,311,住宅区,382,141,小区,383,1476,2927
624,B2094656D368A5FB479E,卓达院士专家园,,114.4327,38.01682,311,住宅区,274,74,小区,16,286,828
625,B2094757DA6EAAF9419D,璟郡小区,桥东区石家庄市公安局西邻,114.483285811742,38.0226627333738,311,住宅区,236,116,小区,110,681,2219
626,B2094656D364AAFB479C,棉二小区,,114.51837,38.04678,311,住宅区,35,4,小区,866,1795,3057
627,B2094656D365A5FE499A,合作小区(广源路),广源路2,114.44171,38.05851,311,住宅区,409,97,小区,93,470,1135
628,B2094656D36BA7F4439D,阳光水岸,建设南大街168号,114.51103,38.0161,311,住宅区,249,93,小区,196,839,1882
629,B2094656D365A6F54498,青园小区(西1门),,114.52061,38.01885,311,住宅区,109,11,小区,257,1078,2421
630,B2094656D365A4FB4398,联盟居住小区(友谊北大街),友谊北大街336,114.454,38.0774,311,住宅区,65,13,小区,140,440,955
631,B2094656D36AA7F4479D,石家庄市交管局宿舍,汇华路10,114.49417,38.00909,311,住宅区,45,12,小区,73,394,990
632,B2094656D36AA4FA499E,河北日报生活小区,青园街173,114.51831,38.03417,311,住宅区,144,65,小区,534,2001,3350
633,B2094656D365A5FC459A,新石小区(新石中路),中华大街与新石中路交叉口,114.47614,38.01356,311,住宅区,154,62,小区,180,511,1283
634,B2094656D368ABFF409E,太行生活区,新华区和平西路221号太行宿舍,114.47977,38.06247,311,住宅区,377,120,小区,221,1059,2233
635,B2094656D36AA6FF4398,仁和嘉园,槐安东路28,114.50492,38.02159,311,住宅区,485,273,小区,257,841,2604
636,B2094656D364A5F54192,冀兴花园(胜利北街),胜利北街141号,114.50366,38.06294,311,住宅区,128,46,小区,178,854,2756
637,B2094656D365A4F44199,钟强小区(钟旺路),,114.44814,38.06618,311,住宅区,187,52,小区,132,589,1097
638,B2094656D365ABF8449A,宁安小区,北荣街41号,114.48638,38.05153,311,住宅区,244,58,小区,427,1552,2951
639,B2094656D06CA2FA479C,紫荆花园,,114.51177,37.97526,311,住宅区,341,133,小区,13,29,44
640,B2094757D064A7F94092,燕都花园,石家庄市桥东区华新路65号,114.50910472,38.062223668,311,住宅区,179,59,小区,201,874,2551
641,B2094656D369A4FF4699,开达小区,工农路,114.46223,38.03134,311,住宅区,185,72,小区,254,1057,2183
642,B2094656D365ABFC4092,铁路34宿舍,中华南大街与槐安路交叉口,114.4757,38.02759,311,住宅区,152,49,小区,203,947,2360
643,B2094757D56FA7FD439D,紫晶·天域一期,中国河北省石家庄市区胜利北街,114.50004367,38.05584093,311,住宅区,271,97,小区,199,1531,3198
644,B2094656D36AA2FB439B,石铁三十一宿舍,宁安路291,114.46925,38.05666,311,住宅区,61,18,小区,336,1196,2302
645,B2094656D364A4FB429F,平安万和园(北门),,114.49753,38.01758,311,住宅区,126,49,小区,158,598,1917
646,B2094757D66EA0FB4692,宏业花园,石家庄华新路30号,114.507302157,38.0617705644,311,住宅区,278,119,小区,210,915,2697
647,B2094656D369A0FE439B,建国小区,槐安西路257,114.44104,38.02472,311,住宅区,82,14,小区,185,683,1131
648,B2094656D36BA7FD4793,燕港怡园,东岗路28,114.52613,38.01532,311,住宅区,106,53,小区,218,999,1939
649,B2094656D365A4F9499D,湖畔佳苑,泰华街与北城路交叉口,114.4621,38.07407,311,住宅区,120,57,小区,157,654,1269
650,B2094656D365A4FB439D,建国小区南区(东门),槐安西路246,114.43997,38.02423,311,住宅区,104,17,小区,157,666,1089
651,B2094656D365A4F44793,环城花园生活东区(城角街),城角街669,114.44526,38.02069,311,住宅区,222,80,小区,169,685,1189
652,B2094656D365ABFD4693,宁安小区(南门),,114.48645,38.05093,311,住宅区,15,1,小区,461,1535,2979
653,B2094656D369A1FE499F,西里新区(东门),西里街30,114.45522,38.03708,311,住宅区,22,7,小区,252,955,2191
654,B2094656D364AAFF409E,钟家庄(北区),,114.45182,38.06776,311,住宅区,118,48,小区,144,600,1132
655,B2094656D365ABFF4992,胜利小区明珠园,塔南路,114.49277,38.01209,311,住宅区,54,7,小区,79,503,1254
656,B2094656D365ABFC409B,中华绿园(东门),中华北大街186,114.47705,38.0661,311,住宅区,17,5,小区,237,879,1969
657,B2094656D365A2F4429A,省艺校宿舍,,114.51806,38.03665,311,住宅区,79,26,小区,674,2097,3396
658,B2094656D36AA4F94692,省广播电视局宿舍,青园街150,114.51666,38.03777,311,住宅区,145,36,小区,661,2024,3436
659,B2094656D365ABFC4099,和平庄园,和平路与西三庄街交叉口,114.44623,38.063187,311,住宅区,41,6,小区,121,548,1137
660,B2094656D365ABFE4093,石府公寓(南门),,114.50856,38.02838,311,住宅区,17,4,小区,303,1597,3205
661,B2094757D56FA6FE499C,海龙城市之光,槐安路交南长街,114.4813889,38.02319119,311,住宅区,117,76,小区,129,710,2228
662,B2094757D16AA6FB419C,石府公寓,石家庄桥东区槐中路97号,114.50940308,38.028029472,311,住宅区,20,6,小区,309,1593,3170
663,B2094656D365A3FB4798,蓝钻名座,北大街19号,114.48749,38.04837,311,住宅区,16,2,小区,550,1598,3127
664,B2094656D364AAF9489C,经编厂宿舍(育才街),育才街与东岗路交叉口,114.52908,38.0168,311,住宅区,32,6,小区,228,1067,2059
665,B2094656D368ABFF469B,鹏远公寓,北新街60号,114.48538,38.05854,311,住宅区,128,56,小区,219,1271,2758
666,B2094656D365ABFE4992,博雅庄园(南门),,114.50737,38.05873,311,住宅区,14,3,小区,297,1331,2853
667,B2094656D365A4F5499E,长安花苑(北门),,114.51096,38.05035,311,住宅区,8,2,小区,694,1761,3061
668,B2094656D365A4FA4098,石家庄市第五医院住宅小区,,114.51074,38.00503,311,住宅区,13,3,小区,116,397,950
669,B2094656D365A7FD4998,石家庄电业局职工宿舍(水源街),新华路409,114.46599,38.04818,311,住宅区,10,1,小区,221,1377,2359
670,B2094656D369AAF5479A,铁路十六宿舍,宁安路91,114.48116,38.05471,311,住宅区,49,17,小区,333,1323,2812
671,B2094656D36AABF84893,疾控中心生活小区,东风路222,114.52003,38.02366,311,住宅区,117,45,小区,337,1239,2833
672,B2094656D365A4FA419E,平安小区碧海园,建胜路14号,114.50476,38.01947,311,住宅区,28,4,小区,252,695,2403
673,B2094656D365A1FE459D,泰安小区,维明街与新华路交叉口北行50米,114.46686,38.04946,311,住宅区,84,14,小区,249,1332,2367
674,B2094656D365A3FC4693,华潍公寓,工农路214号,114.47178,38.03207,311,住宅区,42,15,小区,229,1156,2454
675,B2094656D364A2FC469B,银宏花苑,园明路29,114.50643,38.0491,311,住宅区,31,12,小区,617,1900,3203
676,B2094656D36AABFE479E,华脉新村,槐中中路116号,114.51681,38.02785,311,住宅区,93,45,小区,284,1721,3173
677,B2094656D36AA6FD499F,芳馨家园,金利街19,114.49842,38.01028,311,住宅区,42,6,小区,118,453,1100
678,B2094656D368A5FB469F,宝曼家园,建国路661号,114.43328,38.0307,311,住宅区,99,15,小区,108,516,943
679,B2094656D06CA1FF429C,平安小区,建胜路12号,114.50943,38.01807,311,住宅区,38,20,小区,233,837,2236
680,B2094757D56FA0FD4993,汇景家园·棉二生活区(北门),谈南路2,114.51941189,38.04737033,311,住宅区,27,8,小区,824,1747,3016
681,B2094656D369AAF54193,路苑小区,,114.48365,38.05427,311,住宅区,207,47,小区,298,1375,2876
682,B2094757D56FA1FE499C,尹泰家园,中国河北省石家庄市区,114.46420166,37.98361084,311,住宅区,73,22,小区,11,36,157
683,B2094656D365A6F5449B,香榭苑(普圆街),,114.49789,38.02136,311,住宅区,275,165,小区,203,768,2455
684,B2094656D365A0FC4893,警苑小区,槐安西路73号,114.46853,38.02721,311,住宅区,49,18,小区,163,985,2197
685,B2094656D36BA3FB409D,谈后小区,谈北路19,114.52027,38.05158,311,住宅区,135,52,小区,527,1601,2834
686,B2094656D36AA0FC489A,滨河小区,红旗大街红滨路6号,114.46226,38.01626,311,住宅区,48,12,小区,248,722,1305
687,B2094656D368A5F4489D,旭华园,江新路1号,114.46658,38.00363,311,住宅区,23,7,小区,95,424,704
688,B2094656D365A4F5489E,变电街家属院(变电街),变电街7,114.44197,38.06627,311,住宅区,22,7,小区,89,397,886
689,B2094656D365A4FB4198,中铁小区(东门),工人街22,114.49983,38.0638,311,住宅区,39,18,小区,108,825,2793
690,B2094656D365ABFD429A,石家庄市交管局宿舍(北门),汇华路10,114.49404,38.00944,311,住宅区,17,0,小区,79,407,1013
691,B2094656D369A4FF4598,怡禾风景,,114.46134,38.03185,311,住宅区,36,8,小区,263,1015,2197
692,B2094656D36BA4FA4892,金鹏花园,裕华东路114,114.54101,38.03497,311,住宅区,49,6,小区,359,1478,2996
693,B2094656D36BA3F84098,康华园,青园街与健康路交叉口,114.51585,38.05156,311,住宅区,38,13,小区,489,1678,2786
694,B2094656D36AA7F84793,水晶·郦城,新石中路36,114.48059,38.01306,311,住宅区,62,27,小区,136,470,1270
695,B2094656D36BA3F9469E,近水楼台,谈中街88,114.51876,38.05215,311,住宅区,50,29,小区,472,1611,2743
696,B2094750DA6EA2FC469B,乐汇城85℃,桥东区中山东路,114.497215,38.044189,311,住宅区,63,42,小区,533,1957,3298
697,B2094750D36FA2FC4493,南岭小区,,114.544624,37.98561,311,住宅区,55,22,小区,3,40,178
698,B2094656D06CA2FA409B,泊爱蓝岛,石家庄工农路,114.43767,38.03156,311,住宅区,770,403,小区,203,652,1098
699,B2094656D06CA2F5439C,五星花园东区,,114.45947,38.00349,311,住宅区,52,15,小区,142,414,684
700,B2094656D06CA2FD469C,尖岭小区,建华南大街126号,114.54124,38.02884,311,住宅区,71,18,小区,511,1429,2839
701,B2094656D06CA2FC469D,龙岗小区,槐安路与时光街交叉口,114.42754,38.02134,311,住宅区,16,2,小区,46,213,740
702,B2094656D364AAFF4292,广平小区(广平街),,114.47335,38.02329,311,住宅区,127,19,小区,177,803,2090
703,B2094656D365A2FD439B,交通银行宿舍,育丰巷2号,114.45432,38.01822,311,住宅区,9,0,小区,225,764,1306
704,B2094757D56EAAFB409B,旭城卧龙花园(东门),中国河北省石家庄市区,114.46876763,38.00238525,311,住宅区,12,4,小区,87,397,660
705,B2094656D365A4FA489C,玉村小区(新石中路),新石中路369号,114.43894,38.01514,311,住宅区,39,10,小区,48,445,939
706,B2094656D365A5FF4198,元南小区,建胜路19号,114.49958,38.02045,311,住宅区,17,9,小区,215,691,2394
707,B2094656D365A5FD439B,长丰苑,长丰路4号,114.4633,38.03775,311,住宅区,30,14,小区,216,1228,2387
708,B2094656D365A6FC469F,美麟花园,公里街22号,114.4864,38.04878,311,住宅区,15,6,小区,541,1571,3098
709,B2094656D365A2F54293,福源大厦,和平东路260-1,114.51371,38.05343,311,住宅区,49,24,小区,418,1621,2836
710,B2094656D365A3FC499F,雅景园,工人街6,114.4966,38.05749,311,住宅区,32,4,小区,158,1374,3155
711,B2094656D364ABFD4893,槐底新村生活小区(槐安东路),槐安东路112,114.52615,38.02094,311,住宅区,58,2,小区,308,1193,2608
712,B2094656D369A4FF4698,红旗小区,红旗大街,114.46153,38.03114,311,住宅区,199,122,小区,259,1026,2187
713,B2094656D369A6FA439F,东龙花园,南长街187,114.48364,38.02669,311,住宅区,76,35,小区,139,958,2579
714,B2094656D368AAF4409F,泰华园西区,电大街86,114.45709,38.06756,311,住宅区,125,70,小区,188,721,1353
715,B2094656D365A2F44799,钻石公寓(石滨巷),新石中路170,114.46279,38.01306,311,住宅区,20,8,小区,267,613,1134
716,B2094656D364A4FD4293,西焦住宅中区(友谊北大街),友谊北大街118,114.45163,38.0507,311,住宅区,21,6,小区,155,832,1888
717,B2094656D36BA3FD419A,远洋花园,栗康街与正东路交叉口,114.5084,38.04554,311,住宅区,78,39,小区,802,1886,3201
718,B2094656D364A4FF439B,金鼎公寓2号楼,,114.47444,38.04216,311,住宅区,43,11,小区,518,1298,2728
719,B2094750D26FA6FB469B,发源小区,中华南大街建国路2号,114.481216,38.02666,311,住宅区,229,94,小区,157,913,2486
720,B2094656D364ABFD469B,电业小区(育才街),育才街319,114.52916,38.01425,311,住宅区,45,11,小区,215,955,1827
721,B2094656D365A6FB429D,伴纵创业城,,114.48361,38.04633,311,住宅区,51,31,小区,611,1497,2960
722,B2094656D365A3F84593,师范街166号院,,114.46592,38.02671,311,住宅区,44,5,小区,151,995,2070
723,B2094656D365A2F5459F,福清怡苑,长青路2,114.46042,38.03876,311,住宅区,113,23,小区,214,1156,2306
724,B2094656D365A1FE409F,铁路三十二宿舍(永泰街),永泰街165,114.46846,38.05413,311,住宅区,6,1,小区,302,1250,2378
725,B2094656D365A4F5439D,滨湖新村(西门),,114.46321,38.07419,311,住宅区,101,44,小区,156,662,1273
726,B2094656D365ABFC499F,交远家园(西门),靶场街25,114.44922,38.0458,311,住宅区,22,7,小区,205,771,1829
727,B2094656D365A2FB4492,河北省三院宿舍,,114.46722,38.0399,311,住宅区,2,0,小区,236,1309,2481
728,B2094656D365A2FF4098,河北省外贸化工宿舍,变电街15,114.44163,38.068,311,住宅区,16,7,小区,67,335,849
729,B2094656D365A2FD4292,河北省科学院宿舍,工农路565,114.4485,38.03199,311,住宅区,31,11,小区,362,809,1575
730,B2094656D365A3F54093,人行宿舍,裕华西路95,114.44602,38.03505,311,住宅区,24,5,小区,338,781,1456
731,B2094656D365A3F9479D,城市之光,,114.4832,38.02275,311,住宅区,66,11,小区,110,683,2232
732,B2094656D365A3FD4193,河北省人民银行宿舍(北合街),北合街2,114.46193,38.05466,311,住宅区,27,9,小区,282,1053,2223
733,B2094656D365A3FC4393,中国银行宿舍,,114.53781,38.02547,311,住宅区,7,2,小区,508,1236,2774
734,B2094757D065A3F9479E,省医院宿舍,石家庄泰华街249号,114.46864015,38.053638639,311,住宅区,5,1,小区,305,1268,2376
735,B2094757D56FA6FA4992,夏朵,钦州市安洲大道(妇幼保健院斜对面),114.4604478,38.00168389,311,住宅区,18,5,小区,118,383,636
736,B2094656D365A7FC4892,省直机关宿舍,,114.46911,38.04863,311,住宅区,6,0,小区,315,1407,2441
737,B2094656D365A1FA4699,第十三研究所宿舍,合作路115,114.45435,38.05426,311,住宅区,23,3,小区,207,832,1961
738,B2094656D365A1FD419D,河北医科大学宿舍(新石南路),新石南路229号,114.45616,38.00881,311,住宅区,151,62,小区,192,508,921
739,B2094656D365A3F94492,石药第一生活区,中山西路273,114.46075,38.04196,311,住宅区,75,14,小区,175,1215,2293
740,B2094656D364AAFF4392,鼎嘉府邸(大经街),大经南街67,114.49768,38.04199,311,住宅区,39,15,小区,565,2006,3322
741,B2094656D368A5F44898,都市晶华,南二环158号,114.46583,38.00373,311,住宅区,19,5,小区,110,431,703
742,B2094656D368A5FB469C,裕西小区,裕华西路860号,114.42372,38.03335,311,住宅区,26,13,小区,63,318,712
743,B2094757D56FA1F4469E,海悦天地,中国河北省石家庄市区裕华西路66号,114.47383950122344,38.03423127057672,311,住宅区,3668,2567,小区,294,1173,2634
744,B2094757D56EAAFD4298,三宏公寓,南二环与红旗大街交叉口,114.46307,38.000942,311,住宅区,86,35,小区,92,367,600
745,B2094656D36AA4F94199,府阳公寓,建设大街与范西路交叉口,114.51505,38.039768,311,住宅区,10,2,小区,817,1949,3286
746,B2094656D06CA2F5459B,文苑小区,北城路,114.47402,38.07362,311,住宅区,24,15,小区,176,704,1464
747,B2094757D16EA6F94792,西苑小区,石家庄农科路,114.45039367,38.056926727,311,住宅区,17,5,小区,181,689,1637
748,B2094656D364ABFC4199,谈中园,谈南路39,114.52171,38.04778,311,住宅区,174,76,小区,735,1661,3037
749,B2094757D56FA5FE409E,长城三宏别墅,汇宁街6号,114.46363471,38.00097765,311,住宅区,121,62,小区,91,373,605
750,B2094656D365A4F5449E,合作小区西区(广源路),广源路5,114.43722,38.05894,311,住宅区,170,61,小区,73,367,987
751,B2094656D36AA7F84792,嘉实·栖园,新石中路39号,114.48047,38.01398,311,住宅区,183,55,小区,143,508,1321
752,B2094656D365A1F94793,铁路三十二宿舍(宁安路),宁安路238,114.46833,38.05597,311,住宅区,105,34,小区,334,1187,2301
753,B2094656D365A0FD419C,嘉实红人公馆,,114.47678,38.05452,311,住宅区,291,131,小区,356,1235,2554
754,B2094656D365A6FF4898,河北省公安厅靶场街生活区,朝霞街18,114.4478,38.05175,311,住宅区,79,23,小区,162,711,1613
755,B2094757D56FA6FC489A,泰丰家园,新华路,114.4869637,38.05012885,311,住宅区,3,0,小区,493,1565,3073
756,B2094757D56FA1F44193,华林国际,石家庄胜利北大街和光华路交汇处,114.47933567,38.07422635,311,住宅区,506,265,小区,186,634,1430
757,B2094656D365ABF8439A,中央银座小区,四中路66号,114.50945,38.03799,311,住宅区,12,3,小区,780,1955,3467
758,B2094656D365A7F9439B,盛景佳园,中华南大街,114.47595,38.0155,311,住宅区,58,27,小区,170,551,1433
759,B2094656D365A3F9469A,天蕴大厦,友谊南大街51,114.45236,38.03924,311,住宅区,20,13,小区,288,910,2057
760,B2094656D364AAFB409C,范华小区,西大街与范西路交叉口,114.51896,38.04087,311,住宅区,20,7,小区,722,1898,3297
761,B2094656D364ABFD409F,水工局宿舍(体育南大街),体育南大街365,114.53407,38.0142,311,住宅区,82,31,小区,208,992,1745
762,B2094656D364A4F84792,华泰家园,新华路149号,114.48187,38.048905,311,住宅区,29,16,小区,602,1446,2932
763,B2094656D36BA0F8449D,富强西区,青园街与东岗路交叉口,114.51978,38.01286,311,住宅区,35,28,小区,220,733,1630
764,B2094656D36BA3F9439E,园东园,青园街15,114.51771,38.05121,311,住宅区,12,4,小区,575,1662,2823
765,B2094656D369A1F9439E,军安水晶公寓,裕华路与城角街交叉口,114.44444,38.03499,311,住宅区,15,5,小区,309,762,1336
766,B2094656D365A4F5429C,河北送变电宿舍(水产西街),水产西街38,114.45726,38.04669,311,住宅区,13,3,小区,210,1080,2241
767,B2094656D36AA6FD489B,胜利小区温馨园,塔南路27号,114.4966,38.012238,311,住宅区,282,59,小区,111,509,1259
768,B2094656D06CA2F8429A,电业小区,,114.46617,38.0277,311,住宅区,41,11,小区,149,997,2149
769,B2094656D06CA2FE449E,华兴花园,,114.53215,38.01207,311,住宅区,9,4,小区,192,861,1671
770,B2094656D06CA2F94199,安惠小区,,114.43827,38.03189,311,住宅区,11,0,小区,214,666,1118
771,B2094656D365A1FC419A,石铁南新街宿舍,,114.48026,38.02065,311,住宅区,29,12,小区,136,665,1994
772,B2094656D365A5FD429C,石家庄市教育局园丁小区(西苑派出所广源路社区警务室西),国泰街39,114.43906,38.05633,311,住宅区,42,11,小区,97,426,1105
773,B2094656D365A6FE489E,河北省统计局家属院,西焦北路3,114.45079,38.05256,311,住宅区,10,2,小区,154,810,1745
774,B2094656D365A7F94599,石家庄市卷烟厂宿舍,新华路264,114.4618,38.04793,311,住宅区,7,0,小区,205,1195,2256
775,B2094656D365A0FA4492,谈阁街第三居民生活区,,114.518,38.0487,311,住宅区,12,7,小区,761,1741,3003
776,B2094656D365A0FF479B,24中生活小区,,114.4842,38.0259,311,住宅区,16,14,小区,138,917,2559
777,B2094656D365A0FE449F,师大南院教工宿舍,槐北路232,114.53189,38.0314,311,住宅区,20,4,小区,389,1632,3388
778,B2094656D365A2F44093,车辆厂小区,北荣街20,114.48401,38.05295,311,住宅区,30,6,小区,385,1399,2951
779,B2094656D365A2FC4198,西芩园,,114.4487,38.07807,311,住宅区,13,6,小区,102,322,825
780,B2094656D365A3FA409B,东塑生活区,,114.46884,38.0306,311,住宅区,45,4,小区,169,1135,2392
781,B2094656D365A4F44993,虹光苑小区(虹光街),虹光街30,114.4422,38.05014,311,住宅区,36,11,小区,126,589,1356
782,B2094656D365A4F4419E,红旗小区(西门),红旗大街129,114.45968,38.02738,311,住宅区,134,44,小区,208,971,1963
783,B2094656D365A4FB479E,铁路电器化宿舍,西三庄街38,114.44461,38.06962,311,住宅区,24,13,小区,101,419,888
784,B2094656D365A4FB469C,市中医院宿舍(东门),康乐街20,114.47322,38.04501,311,住宅区,5,0,小区,465,1366,2556
785,B2094656D365A4FB439F,东珠小区东院(南门),,114.4841,38.02602,311,住宅区,14,7,小区,139,909,2565
786,B2094656D365A4FA429C,东三教新村B区,槐安路与东平路交口往西200米,114.49189,38.01776,311,住宅区,18,7,小区,107,608,1748
787,B2094656D365A4FB409C,市交管局宿舍(北门),,114.50489,38.01694,311,住宅区,14,7,小区,235,658,1979
788,B2094656D365ABFD4199,河北印染机械厂宿舍(西门),泰华街509,114.4639,38.07058,311,住宅区,4,1,小区,193,728,1411
789,B2094656D36AA7F4479F,东三教新区,汇华路12号,114.49525,38.00875,311,住宅区,15,4,小区,72,379,976
790,B2094656D36BA7FE499A,电建生活小区,,114.53066,38.01363,311,住宅区,7,2,小区,214,911,1762
791,B2094750D56BA0FF4993,河北师大科技园,建设大街南二环东南角,114.513502,38.000491,311,住宅区,124,28,小区,32,284,686
792,B2094750D56AA4F9489C,青鸟中山华府,中山东路与大经街交口西南角,114.496636,38.042582,311,住宅区,667,345,小区,537,1937,3311
793,B2094750D56AA3FD409C,璟郡,市公安局西邻槐南路龙世界对过,114.49271,38.021903,311,住宅区,4,0,小区,129,785,2373
794,B2094750D569AAFC409C,世奥湾,东岗路建华大街以西(世纪花园对面),114.545916,38.015391,311,住宅区,212,87,小区,308,968,1686
795,B2094656D364AAFF429A,河北医科大学第二医院宿舍(西门),九中街19号,114.48387,38.05971,311,住宅区,23,9,小区,212,1199,2628
796,B2094656D365A6F8429B,省建行宿舍,桥西中华南大街与工农交口,114.476788,38.031597,311,住宅区,81,28,小区,277,1088,2636
797,B2094656D369A7FF439F,香晴苑,东风路与建设大街交叉口西行100米,114.50516,38.02387,311,住宅区,211,157,小区,269,904,2738
798,B2094656D369ABFE449C,栗新小区,栗胜路65,114.49861,38.05212,311,住宅区,200,123,小区,251,1793,3259
799,B2094656D36BA3FE439A,长安花苑,建设北大街80,114.51118,38.04949,311,住宅区,166,51,小区,762,1801,3053
800,B2094656D365A7F4489D,丽都花园(石风路),红旗大街4号,114.46132,38.02227,311,住宅区,181,83,小区,179,911,1674
801,B2094656D365A5F54993,五十四所东风院,,114.43966,38.04933,311,住宅区,131,48,小区,133,532,1272
802,B2094656D365A4FB4792,国富华庭(北门),,114.50923,38.02132,311,住宅区,85,37,小区,274,946,2590
803,B2094656D368A5F44299,八一花苑,河北省,114.43563,38.04527,311,住宅区,64,26,小区,118,518,1041
804,B2094656D36AABF4489E,宾南花园,槐中路201号,114.52748,38.02904,311,住宅区,154,84,小区,392,1578,3359
805,B2094656D36AAAF4499E,都景园,建设南大街94号,114.51126,38.02878,311,住宅区,141,58,小区,318,1697,3182
806,B2094656D364A4FD489A,谊联小区(谊联街),谊联街25,114.44937,38.02925,311,住宅区,96,45,小区,353,821,1588
807,B2094656D364AAFE4299,时代花园(国泰街),国泰街58,114.43775,38.06092,311,住宅区,63,23,小区,72,321,929
808,B2094656D365AAF5489C,安联青年城,红旗大街汇新路东行300米路南,114.45634,37.98445,311,住宅区,128,61,小区,2,48,163
809,B2094750D56BA6FF4398,恒大华府,槐安西路与维明街交汇处西南角(维明南大街266号),114.470437,38.022706,311,住宅区,834,580,小区,158,807,1959
810,B2094656D365A4FA429A,滨河小区颐安苑(红滨路),红滨路6,114.46179,38.01084,311,住宅区,80,24,小区,243,568,1024
811,B2094656D365A4FB4099,西里小区富华园,中山西路288,114.45871,38.041,311,住宅区,127,55,小区,206,1125,2253
812,B2094656D368AAFF439C,高柱新村,,114.46543,38.07525,311,住宅区,120,20,小区,167,683,1244
813,B2094656D36AABFA419B,槐底村(怀特国际商城西北),,114.52694,38.02348,311,住宅区,35,10,小区,356,1291,2978
814,B2094656D364A1F44198,华闻别墅区,,114.55519,37.98715,311,住宅区,126,83,小区,2,31,144
815,B2094757D66EA0FF489B,银宏小区,河北省石家庄市桥东区休门街13号,114.50532806,38.033584949,311,住宅区,39,18,小区,416,1696,3398
816,B2094757D064A3F4489C,中基礼域小区,石家庄市桥东区平安北大街19号,114.50168609,38.045082092,311,住宅区,92,28,小区,669,2049,3284
817,B2094656D365A4FA4892,工行宿舍(北门),建胜路22号,114.4988,38.01979,311,住宅区,96,26,小区,214,664,2311
818,B2094656D365ABFD469B,中华绿园(南门),红军大街69,114.47011,38.06519,311,住宅区,74,19,小区,256,939,1887
819,B2094656D369A7FA499A,凯嘉大厦,长安区中山东路126号,114.50481,38.043,311,住宅区,261,36,小区,806,2049,3275
820,B2094656D364ABFC4292,石家庄棉三生活区(谈南路),,114.52585,38.04575,311,住宅区,93,21,小区,563,1689,3238
821,B2094656D365A2FD499D,阳光园,红旗大街与南三环交处,114.554787,37.997346,311,住宅区,122,40,小区,25,128,528
822,B2094656D364AAF44598,友谊社区,精英路3,114.45382,38.02959,311,住宅区,22,7,小区,312,855,1821
823,B2094656D365A3FF4293,河北省农业投资公司宿舍,银宏花园1号楼,114.5055,38.04878,311,住宅区,1,0,小区,612,1920,3223
824,B2094656D365A2FE4798,青园街市委宿舍,青园街33,114.51742,38.04513,311,住宅区,9,2,小区,925,1861,3107
825,B2094656D365A6FE4399,三鹿集团公司生活区(西区),,114.4451,38.06551,311,住宅区,6,0,小区,103,527,1043
826,B2094656D365A4F4439A,筑凯嘉园(友谊北大街),,114.45277,38.05353,311,住宅区,28,11,小区,196,824,1861
827,B2094656D365ABFC419B,铁路配件厂宿舍(西门),放射西路5号,114.5009,38.01379,311,住宅区,13,3,小区,147,492,1425
828,B2094656D365ABFD429C,师大南院教工宿舍(北门),槐北路232,114.53175,38.03201,311,住宅区,4,0,小区,387,1710,3399
829,B2094750DB6EAAFC499E,中天世都,建设南大街裕华东路四中路市规划局包围,114.511163,38.035932,311,住宅区,117,69,小区,692,1908,3346
830,B2094750D56AA3FC4693,祥云国际,桥西中华大街与南二环交口向南200米,114.473891,38.003535,311,住宅区,72,34,小区,61,360,680
831,B2094750D569AAF4449C,百年华府,槐安西路与西二环交叉口西南(桥西地税局行政楼西侧),114.436072,38.023516,311,住宅区,3,1,小区,130,522,963
832,B2094750D569AAF94699,橄榄城,槐安路与城角街交口南行150米路西,114.443723,38.02363,311,住宅区,4,2,小区,225,684,1200
833,B2094750D569AAFE419C,万豪大厦,中华南大街工农路裕华西路仓安路包围,114.478623,38.033203,311,住宅区,76,33,小区,311,1197,2666
834,B2094656D365ABFE429F,邮电园(西门),,114.50726,38.02379,311,住宅区,2,0,小区,280,1015,2740
835,B2094757D56FA6FA419F,旭雅园,滨河街8号,114.46551053,38.00236925,311,住宅区,7,3,小区,93,398,653
836,B2094656D06CA3FE499D,天伦锦城,友谊南大街与南二环交叉口,114.47394,38.00473,311,住宅区,15,0,小区,78,396,742
837,B2094656D365AAF54593,新友合康城,桥西区友谊北大街35号(友谊北大街以东,114.4516,38.04786,311,住宅区,3,2,小区,185,867,1993
838,B2094656D365ABFC4499,北后小区,兴凯路与清真寺街交叉口,114.48335,38.04991,311,住宅区,13,2,小区,533,1455,2934
839,B2094656D365A4F5449D,莱茵港小区,裕华西路164,114.44202,38.03452,311,住宅区,16,7,小区,301,714,1207
840,B2094656D365A4FB4393,华西园(广源路),广源路18,114.43666,38.05826,311,住宅区,19,7,小区,70,357,972
841,B2094656D365A5FA499A,交远家园,靶场街25,114.44984,38.04516,311,住宅区,12,7,小区,195,818,1877
842,B2094656D365A6F44898,石家庄市电信局宿舍,,114.46968,38.05157,311,住宅区,15,6,小区,339,1367,2397
843,B2094656D365A1FD4692,河北省气象局宿舍三号院,槐中路295,114.53784,38.02919,311,住宅区,18,6,小区,480,1480,3047
844,B2094656D36BA6FC449B,荣盛家园,石栾路28号,114.51056,38.00806,311,住宅区,24,3,小区,143,495,1073
845,B2094656D36AA6FC439B,怡然居小区,东平路3号,114.50017,38.01811,311,住宅区,32,11,小区,192,610,2150
846,B2094656D36AA0F5499E,高新国税局宿舍,新石北路387号,114.44581,38.01895,311,住宅区,3,1,小区,193,678,1178
847,B2094656D369AAFA499A,龙城公寓,隆盛路1,114.48051,38.04971,311,住宅区,7,4,小区,589,1402,2817
848,B2094656D369A4F8429D,工商局宿舍,师范街160,114.46575,38.0273,311,住宅区,7,2,小区,154,996,2108
849,B2094656D369A5F5489E,省法院宿舍,城角街振岗路附近,114.46092,38.03638,311,住宅区,2,1,小区,236,1099,2293
850,B2094750D56AA3FC409E,白金公馆,维明街民心河交口东北侧,114.471647,38.026706,311,住宅区,12,6,小区,158,935,2257
851,B2094656D364A4FF429D,金鼎公寓(体育东街),,114.47433,38.04118,311,住宅区,45,16,小区,508,1285,2751
852,B2094656D365A5FE4599,河北省直西苑小区(翠芳园),友谊北大街166,114.45134,38.05597,311,住宅区,54,23,小区,183,777,1715
853,B2094656D365A5F8409C,西焦生活西区(朝霞街),朝霞街12,114.44847,38.05159,311,住宅区,16,3,小区,161,729,1668
854,B2094656D365A4FA4992,军创园(西门),,114.47626,38.04714,311,住宅区,7,5,小区,577,1437,2666
855,B2094656D365A4FB489A,槐东小区(北门),,114.53794,38.03016,311,住宅区,15,5,小区,485,1505,3071
856,B2094656D36AA2F4419D,裕通园,永泰中街66,114.47103,38.05558,311,住宅区,2,0,小区,352,1228,2358
857,B2094656D365A3FD429A,省统计局宿舍,新华合作路488号,114.436941,38.052712,311,住宅区,12,7,小区,71,388,1064
858,B2094750D26DABFA4192,世纪花园小区,,114.527642,38.013132,311,住宅区,5,2,小区,210,886,1741
859,B2094750D76BA4FC419E,时光小区,,114.422813,38.025447,311,住宅区,31,4,小区,50,166,593
860,B2094750D669A7FC429D,军馨家园,石家庄桥西区中山西路486号,114.438438,38.040756,311,住宅区,94,68,小区,185,687,1144
861,B2094751D568A4FA479A,和润苑,石家庄市新华区水产西街25号,114.453417,38.044866,311,住宅区,9,6,小区,186,927,2143
862,B2094656D365A1FC4699,广安小区康华园(健康路),健康路33,114.51435,38.05125,311,住宅区,69,22,小区,651,1745,2908
863,B2094656D369A7F44299,君泽苑,裕华西路92号,114.4944,38.03294,311,住宅区,201,110,小区,250,1595,3143
864,B2094656D36BA7FE459D,水云间小区,富强大街168号,114.52317,38.0117,311,住宅区,162,50,小区,214,687,1656
865,B2094656D365ABFE459E,自由港公寓(北门),和平东路20号,114.49838,38.05403,311,住宅区,9,0,小区,185,1710,3247
866,B2094656D365A4F9449C,南花园C座,,114.483,38.04249,311,住宅区,13,2,小区,642,1437,2928
867,B2094656D368A4FD429F,花香维也纳神州嘉园,花香维也纳,114.50039,38.06141,311,住宅区,26,11,小区,131,963,2937
868,B2094656D36BA3F5419F,第四棉纺织厂生活区,广安大街61,114.52466,38.04961,311,住宅区,19,2,小区,521,1543,3013
869,B2094656D369A4FF489C,石家庄市人民政府园林式居住小区,师范街146,114.46547,38.02967,311,住宅区,42,16,小区,160,1027,2224
870,B2094656D369A1FB4098,河北司法警官职业学院宿舍,工农西路607,114.44492,38.03238,311,住宅区,43,6,小区,308,765,1368
871,B2094656D365ABFD449B,联邦名都(南门),,114.4825,38.0318,311,住宅区,16,3,小区,242,1184,2725
872,B2094656D365A4FB4699,河北省工商银行宿舍,维明南大街193,114.471,38.0266,311,住宅区,80,33,小区,148,930,2241
873,B2094656D365A7F4439B,河北省公安厅合作路生活区,合作路128,114.45967,38.05392,311,住宅区,75,33,小区,257,977,2188
874,B2094656D369A2FF4193,信息产业部电子第五十四研究所生活区,中山西路491,114.44152,38.04647,311,住宅区,23,8,小区,188,611,1355
875,B2094656D369A2FF409F,西焦花园生活西区,靶场街148,114.44853,38.05102,311,住宅区,21,4,小区,161,747,1698
876,B2094656D365A4FB489E,蓝湾小区,,114.52442,38.00334,311,住宅区,20,9,小区,89,364,1122
877,B2094656D365A2FF4993,河北师范大学青年公寓楼,,114.52903,38.0379,311,住宅区,14,1,小区,360,1866,3466
878,B2094656D365A5FA409A,天安小区,中山西路与友谊南大街交叉口,114.45363,38.040901,311,住宅区,18,4,小区,249,934,2122
879,B2094656D365A1F4419C,泰华小区,泰华街14,114.46222,38.043858,311,住宅区,0,0,小区,192,1341,2328
880,B2094656D365A3F4449C,宝泰苑,维明街与支农路交叉口,114.46958,38.02943,311,住宅区,2,2,小区,165,1098,2331
881,B2094656D364A4FA4092,新北小区,中华南大街348号附1号,114.47657,38.018208,311,住宅区,7,3,小区,164,646,1741
882,B2094656D36AAAFF4499,邮电园,休门街东风路,114.50764,38.023785,311,住宅区,16,1,小区,278,1020,2808
883,B2094656D36AAAFA4099,百汇小区,四中路与建设大街交叉口,114.50838,38.038754,311,住宅区,9,6,小区,753,1985,3458
884,B2094751DA6FA5FE4793,红星小区,裕华西路西二环吉恒街,114.42213,38.035698,311,住宅区,30,12,小区,31,287,673
885,B2094750DA6CA3FB4992,天水丽城,永中街道镇南商厦,114.432121,38.020812,311,住宅区,2,2,小区,55,336,850
886,B2094656D06CA2F54393,五星花园,红旗大街与南二环交叉口西侧,114.45176,38.00474,311,住宅区,15,12,小区,114,364,687
887,B2094656D06CA2FB459B,园丁小区,,114.43881,38.05608,311,住宅区,2,1,小区,96,420,1098
888,B2094751D26DABFE409F,石纺宿舍,石家庄市桥东区胜利北大街233号,114.520851,38.042945,311,住宅区,1,0,小区,763,1823,3221
889,B2094750DA6BA4F4429A,瑞景华庭,中山东路与东二环交叉口,114.526748,38.043502,311,住宅区,1,0,小区,547,1890,3339
890,B2094750D26DA5FB429D,筑境嘉园,广安大街,114.517407,38.052023,311,住宅区,2,0,小区,478,1656,2770
891,B2094757DB6CA6F4439F,省医药宿舍小区,电大街78号,114.449748,38.066571,311,住宅区,1,0,小区,142,595,1139
892,B2094656D365A0FD449F,铁一中宿舍,兴凯路291,114.46685,38.05167,311,住宅区,2,1,小区,301,1248,2371
893,B2094750D56AA3FE439E,聚和远见,建设大街与槐安路交汇处南行200米路东,114.514189,38.018176,311,住宅区,252,143,小区,242,963,2355
894,B2094750D569AAF44493,富源公馆,紧邻水上公园。东临文苑街，南临滨湖小区，西临高柱预留地，北临高柱商业用地,114.464718,38.078618,311,住宅区,2,2,小区,127,574,1100
895,B2094656D36AA1FD419C,金恒花园,健康路8号,114.50591,38.04989,311,住宅区,17,10,小区,600,1839,3210
896,B2094757D56EAAFD489B,东里苑,中国河北省石家庄市区,114.47176622,38.03253391,311,住宅区,1,0,小区,234,1162,2457
897,B2094656D365A2F44893,河北少年儿童出版社小区,工农路359,114.46914,38.0319,311,住宅区,1,0,小区,188,1182,2438
898,B2094656D365A3FF4298,河北省交通厅家属院,,114.44959,38.05271,311,住宅区,10,4,小区,160,777,1703
899,B2094656D365A6FD489A,河北省机械设备进出口公司家属院,合作路474,114.43805,38.05368,311,住宅区,6,2,小区,82,404,1112
900,B2094656D365A4FA419F,北焦小区,,114.45874,38.06204,311,住宅区,13,4,小区,261,783,1757
901,B2094656D365A4FA4993,华海园(东门),,114.47928,38.04906,311,住宅区,1,1,小区,613,1427,2763
902,B2094656D365A4F44093,兰亭(石铜路),新石南路336,114.44988,38.00823,311,住宅区,11,6,小区,143,436,889
903,B2094656D365A4F4449D,市第一医院宿舍(西门),胜利南街229,114.48923,38.01664,311,住宅区,9,5,小区,67,563,1603
904,B2094656D365A4F54799,东三教新区(北门),汇华路12号,114.49528,38.00947,311,住宅区,2,0,小区,83,417,1008
905,B2094656D365ABFC449B,燕都花园(南门),华新路65,114.50907,38.06211,311,住宅区,2,0,小区,202,883,2565
906,B2094656D365ABFC4799,兴凯·颐园(西门),,114.48739,38.05146,311,住宅区,1,0,小区,402,1551,2991
907,B2094656D365ABFD419D,惠馨苑(南门),滨华路31,114.46728,38.06927,311,住宅区,3,0,小区,200,811,1572
908,B2094656D365ABFD429F,热一小区(北门),华星路8,114.4788,38.01653,311,住宅区,24,17,小区,169,563,1499
909,B2094656D365ABFD439C,信通花园生活小区(东门),,114.48651,38.06818,311,住宅区,1,0,小区,184,734,2020
910,B2094656D06CA1FD469C,十三所宿舍,,114.45705,38.05411,311,住宅区,1,0,小区,253,846,2108
911,B2094656D06CA2FB479E,玉成小区,城角街726号,114.44397,38.01554,311,住宅区,1,0,小区,117,530,1078
912,B2094656D06CA1FC4799,蔬菜公司宿舍,,114.474,38.07242,311,住宅区,0,0,小区,181,742,1518
913,B2094656D369A3F5459D,华翠苑,广源路3,114.44001,38.05867,311,住宅区,4,4,小区,84,418,1088
914,B2094656D365ABFE429E,钓鱼台(北门),,114.51406,38.05045,311,住宅区,2,0,小区,751,1772,2962
915,B2094656D365ABFE4599,中央银座小区(北门),,114.50948,38.0381,311,住宅区,4,3,小区,787,1958,3470
916,B2094656D06CA3FD4699,安苑小区,,114.53117,38.0018,311,住宅区,5,4,小区,62,343,1005
917,B2094656D368A5F4479F,正阳宫,,114.45848,38.00424,311,住宅区,5,1,小区,147,425,689
918,B2094656D369A7FF4998,省直平安住宅小区,平安南大街95号,114.5027,38.02785,311,住宅区,1,0,小区,259,1382,3168
919,B2094656D36BA1FB4593,杏林苑,,114.54528,38.01697,311,住宅区,3,2,小区,323,1009,1882
920,B2094656D368AAF84298,惠馨苑,滨华路31,114.46724,38.07015,311,住宅区,7,4,小区,189,793,1496
921,B2094656D06CA2FE449F,华兴家园,,114.53377,38.01428,311,住宅区,0,0,小区,210,994,1746
922,B2094656D06CA2F5479A,外贸小区,,114.47126,38.06254,311,住宅区,0,0,小区,288,980,2025
923,B2094751DA65A6FB439E,金悦公馆,,114.48109671270228,38.038490008943214,311,住宅区,6,4,小区,568,1301,2963
924,B2094752DB6EA3F84298,塔谈一区,河北省 石家庄市 河北省石家庄市桥东区塔谈,114.488248,37.990528,311,住宅区,7,4,小区,3,36,250
925,B2094753DB6AA1FA429E,万达小区,河北省 石家庄市 建华大街,114.542602,38.025592,311,住宅区,51,37,小区,475,1282,2502
926,B2094753D164A6F5459A,八克拉公馆,河北省 石家庄市 裕华路体育大街口,114.531515,38.0358,311,住宅区,12,7,小区,366,1817,3417
927,B2094656D36AA4FB4392,名秀苑(青园街),,114.51757,38.04048,311,住宅区,0,0,小区,794,1914,3376
928,B2094454D26CABFB4593,燕云台,友谊大街振岗路交口西行100米路南,114.451189,38.020982,311,住宅区,0,0,小区,272,781,1302
929,B209475DDB65A4FF4798,汇通小区,汇通路与石栾路交叉口,114.5053,38.012318,311,住宅区,0,0,小区,185,589,1342
930,B209475DD46BA4F4479C,盛安嘉园,,114.45548,38.04782,311,住宅区,0,0,小区,196,1004,2209
931,B209475DD46EABF94698,石家庄发源小区社区,,114.47996,38.02828,311,住宅区,0,0,小区,221,1053,2530
932,B209475DD46EABFF429E,石家庄谈阁小区社区,,114.518,38.0498,311,住宅区,1,1,小区,696,1698,2963
933,B209475DD46EABFF449B,石家庄建东里社区,,114.50663,38.03168,311,住宅区,1,1,小区,370,1627,3338
934,B209475DD46EA4F9419B,石家庄雅兰庭院社区,,114.4846,38.0632,311,住宅区,0,0,小区,186,952,2416
935,B209475DD46EA4F9459A,石家庄维明小区社区,,114.47078,38.02781,311,住宅区,0,0,小区,168,997,2289
936,B209475DD46EA4FB4999,石家庄家兴小区社区,,114.4978,38.0288,311,住宅区,0,0,小区,205,1374,3097
937,B209475DD46EA4FD4698,石家庄东方国际社区,,114.4516,38.0744,311,住宅区,0,0,小区,145,434,995
938,B209475DD768A2FD479F,河北国际商会广场,仓丰路和建通街交口西北角,114.50068649,37.99328342,311,住宅区,0,0,小区,3,75,356
939,B209475DD768A0FE4298,天玺名著一号区天阙,桥西区槐安路与城角街交口东北角,114.44436543,38.02495347,311,住宅区,0,0,小区,241,747,1241
940,B209475DD768A7FB4598,时代公馆,石家庄市桥西区红旗大街与汇丰路交叉口西行200米路北,114.46009398,37.994978,311,住宅区,0,0,小区,42,183,469
941,B209475CD664A7FF429C,佳兴园小区,河北省石家庄市新华区文苑街8号,114.46675600524895,38.075039149782285,311,住宅区,17,17,小区,159,705,1275
942,B2094750D56AA3FE459C,壹公馆,新石中路城角街西北角,114.443324,38.015674,311,住宅区,0,0,小区,99,524,1056
943,B2094656D365A5FB459B,河北省总工会宿舍东院,工农路272-2号,114.4644,38.03148,311,住宅区,5,4,小区,181,1114,2242
944,B2094753DA6FA2FB439D,电大街66号院,新华区电大街66号,114.454665,38.065325,311,住宅区,1,0,小区,182,701,1383
945,B2094753DA6FA2FB4499,天滋花苑,裕华路与大经街交叉口,114.488096,38.035873,311,住宅区,0,0,小区,392,1546,2997
946,B2094753DA6FA2FB449F,华源新村,汇通路97号,114.499254,38.009013,311,住宅区,3,1,小区,108,426,1038
947,B2094753DA6FA2FB4493,朗润园,中山西路联合大学城内,114.437714,38.042244,311,住宅区,0,0,小区,165,631,1099
948,B2094753DA6FA2FB4598,华府园,中华南大街585号,114.478455,38.00796777,311,住宅区,1,0,小区,89,415,939
949,B2094753DA6FA2FB459C,国际商住城,槐北路416号,114.530883,38.006646,311,住宅区,2,2,小区,88,517,1405
950,B2094753DA6FA2FB479F,省盐业宿舍,体育南大街381号,114.531655,38.016942,311,住宅区,0,0,小区,245,1093,2027
951,B2094753DA6FA2F4419E,十二中宿舍,中山路东尚对面,114.489364,38.043445,311,住宅区,0,0,小区,553,1729,3259
952,B2094753DA6FA2F4429E,维多利亚时代二期,石家庄体育南大街与塔南路交叉口,114.53543722524,38.006994088917,311,住宅区,3,3,小区,74,596,1362
953,B2094753DA6FA2F44398,冀达商办楼,桥东胜利北街185号,114.489364,38.043445,311,住宅区,0,0,小区,553,1729,3259
954,B2094753DA6FA2F4469F,红龙湾,东二环与槐安路交叉口南行200米路东,114.489364,38.043445,311,住宅区,13,4,小区,553,1729,3259
955,B2094752D56CA6FA479D,鼎和国际,石家庄市裕华区槐安路北，兴苑街东(万达洲际酒店西邻，河北美术馆北邻),114.53747,38.022655,311,住宅区,0,0,小区,494,1163,2574
956,B2094753DA6FA2F4439D,瑞星花园,经济技术开发区,114.489364,38.043445,311,住宅区,0,0,小区,553,1729,3259
957,B2094753DA6FA2F4449A,玻璃厂宿舍,建设大街与石栾路交叉口西行100米,114.489364,38.043445,311,住宅区,0,0,小区,553,1729,3259
958,B2094753DA6FA2F4449B,风机厂宿舍,石铜路与槐安路交叉口,114.489364,38.043445,311,住宅区,0,0,小区,553,1729,3259
959,B2094753DA6FA2F44498,红星街钢厂宿舍,红星街与联盟路交叉口南行300米,114.489364,38.043445,311,住宅区,3,3,小区,553,1729,3259
960,B2094753DA6FA2F4449E,东风路邮电局宿舍,东风路与青园街交叉口,114.489364,38.043445,311,住宅区,2,0,小区,553,1729,3259
961,B2094753DA6FA2F4449C,第二造纸厂宿舍,石栾路与体育大街交叉口,114.489364,38.043445,311,住宅区,0,0,小区,553,1729,3259
962,B2094753DA6FA2F44492,车辆厂17号院,北荣街与车辆厂后街交叉口,114.489364,38.043445,311,住宅区,0,0,小区,553,1729,3259
963,B2094753DA6FA2F44493,金地名苑,和平东路与体育大街交叉口,114.489364,38.043445,311,住宅区,15,0,小区,553,1729,3259
964,B2094753DA6FA2F4459A,城角庄南区,裕华路城角庄,114.489364,38.043445,311,住宅区,0,0,小区,553,1729,3259
965,B2094753DA6FA2F4459E,北空四站宿舍,翔翼路16号,114.489364,38.043445,311,住宅区,0,0,小区,553,1729,3259
966,B2094753DA6FA2F4459C,农业资源生活区,槐中路294号,114.489364,38.043445,311,住宅区,0,0,小区,553,1729,3259
967,B2094753DA6FA2F44592,国经小区,新华区水上公园附近,114.489364,38.043445,311,住宅区,0,0,小区,553,1729,3259
968,B2094753DA6FA2F4469B,柳林铺,胜利北大街与北外环交叉口,114.489364,38.043445,311,住宅区,0,0,小区,553,1729,3259
969,B2094753DA6FA2F44699,青橙时代,高新区长江大道与太行大街东北角,114.489364,38.043445,311,住宅区,0,0,小区,553,1729,3259
970,B2094753DA69A0FA459C,志诚华府,苑东街与工农路交叉口,114.419582,38.031479,311,住宅区,0,0,小区,37,173,554
971,B2094753DA69A0FA459D,领域,裕华仓丰路与建通街交口南行200米路东,114.502816,37.990751,311,住宅区,0,0,小区,2,68,307
972,B2094753DA69A0FA469B,测绘局宿舍,中山东路495号,114.51509,38.04221,311,住宅区,0,0,小区,906,1924,3255
973,B2094656D36AA7F9419F,华南新村,中华南大街与新石南路交口,114.48029,38.00862,311,住宅区,2,1,小区,83,420,1017
974,B2094656D36BA1F5499D,槐南小区,育才街256,114.52734,38.01956,311,住宅区,3,2,小区,266,1161,2451
975,B2094656D365A3FE499F,馨华园,红军大街73号,114.47029,38.06586,311,住宅区,1,1,小区,251,893,1865
976,B2094656D365A2FA459D,北新小区(神兴),,114.48468,38.06403,311,住宅区,1,1,小区,179,920,2360
977,B2094656D365A5F5479B,九星阁,东平路5,114.49861,38.01805,311,住宅区,0,0,小区,173,617,2022
978,B2094656D06CA3F8499D,丰河苑东区,红旗大街,114.4597,38.02678,311,住宅区,1,1,小区,210,962,1942
979,B209475DD768ABFF439C,善水雅居,体育南大街和308国道交叉口西南角,114.53229901,37.99059039,311,住宅区,0,0,小区,7,90,365
980,B2094750D569ABFB489E,中宏汇景国际,长安区中山东路与青园街交叉口东北(原棉二生活区),114.521929,38.043602,311,住宅区,4,4,小区,741,1806,3164
981,B2094750D569ABFB489D,伽蓝美城,裕华路与休门街交口西南角,114.505866,38.03505,311,住宅区,33,0,小区,543,1793,3445
982,B2094750D569ABF54198,现代城,建通街和石栾路交口,114.507957,38.010306,311,住宅区,2,2,小区,154,564,1144
983,B2094750D569AAFE479D,金隅广场,长安区中山路体育大街交叉口西北角,114.531608,38.043463,311,住宅区,0,0,小区,335,1699,3248
984,B2094750D569AAFF409F,汇特虹,新华路以北、新合街以东、神兴集团和河北科技大学以西区域,114.45519,38.049421,311,住宅区,0,0,小区,193,966,2158
985,B2094750D569AAFF469C,石家庄紫金大厦,槐安路与红旗大街交叉口西南角,114.458754,38.024284,311,住宅区,52,27,小区,194,954,1739
986,B2094750D569AAFF4893,水木清华,富强大街南延与仓丰路交汇处,114.531908,37.996738,311,住宅区,0,0,小区,10,144,668
987,B2094750D569AAF8449B,尚品雅筑,新华区友谊大街与钟旺路交叉口西行100路北,114.453602,38.068106,311,住宅区,4,1,小区,157,621,1215
988,B2094750D569AAF9419E,翰林福邸,桥西区西里商贸街6号(海天假日酒店西路口),114.45537,38.040205,311,住宅区,4,2,小区,211,956,2225
989,B2094750D569AAF94293,香堤小郡,桥西区红旗南大街与南三环交叉口东南角,114.458432,37.999574,311,住宅区,0,0,小区,83,293,573
990,B2094750D569AAF9499C,翰林源,水产西街与中山路交叉口北行100米路东,114.458702,38.046118,311,住宅区,0,0,小区,205,1135,2259
991,B2094750D569AAFA459D,瑞嘉名邸,滨河街与汇明路交口东南角民心河畔,114.472772,37.990208,311,住宅区,0,0,小区,10,79,369
992,B2094750D569AAFA4998,卓达亿嘉盛世春天,长安区建设大街与光华路交叉口东南角,114.514025,38.060363,311,住宅区,18,16,小区,214,1103,2424
993,B2094750D569AAFB499C,Koma国际花园,新石北路与友谊南大街交口西行100米路南,114.450245,38.017973,311,住宅区,0,0,小区,222,710,1239
994,B2094750D569AAF44092,晶彩,翟营南大街56路终点站,114.554379,37.987855,311,住宅区,0,0,小区,2,33,152
995,B2094750D569AAF5409E,宫园2009,红旗大街法商学院(南校区)对面,114.458652,38.005183,311,住宅区,0,0,小区,179,447,724
996,B2094750D56AA3FC4498,金海华府,新华区中华大街与新华路交叉口西行100米路北,114.475658,38.048516,311,住宅区,0,0,小区,536,1403,2622
997,B2094750D56AA3FC499A,熙园,裕华路城角街交口的西北角,114.443456,38.035449,311,住宅区,3,2,小区,302,735,1281
998,B2094750D56AA3FC4993,西城盛世,和平路与西二环西行500米路北,114.430598,38.068205,311,住宅区,0,0,小区,16,148,501
999,B2094750D56AA3FD4199,西引利,红旗大街与新石中路交口西行80米路南,114.457014,38.017886,311,住宅区,0,0,小区,220,797,1293
1000,B2094753DA6EA3FB449F,林溪小镇,植物园北侧,114.51421,38.042802,311,住宅区,1,0,小区,924,1923,3204
1001,B2094753DA6EA3FB4492,燕赵财富主场,燕山大酒店西邻,114.480779,38.035079,311,住宅区,0,0,小区,403,1224,2772
1002,B2094753DA6EA3FB4793,电大街27号院,电大街27号院,114.458034,38.062892,311,住宅区,0,0,小区,239,768,1690
1003,B2094753DA6EA3FB489E,城角街676号,城角街676号,114.443765,38.023501,311,住宅区,0,0,小区,206,680,1198
1004,B2094753DA6EA3FB499B,省考试院宿舍,红旗大街297号,114.460244,38.02558,311,住宅区,1,0,小区,197,971,1900
1005,B2094753DA6EA3FB499E,3302南区,建设大街与建胜路交叉口往西200米,114.509425,38.020306,311,住宅区,0,0,小区,267,872,2517
1006,B2094753DA6EA3F4419F,观筑,中山西路与师范街交口,114.465544,38.042413,311,住宅区,0,0,小区,232,1437,2449
1007,B2094753DA6EA3F4429B,泽龙SOLO,建设大街与光华路交口东行800米,114.512805,38.059057,311,住宅区,0,0,小区,283,1392,2552
1008,B2094753DA6EA3F44393,宝曼小区,工农路和西二环南路交叉口,114.433358,38.031073,311,住宅区,0,0,小区,106,515,942
1009,B2094753DA6EA3F44498,东珠小区,槐安路与南长街交叉口,114.483558,38.026061,311,住宅区,0,0,小区,138,897,2531
1010,B2094753DA6EA3F44593,西城山景,城角街与槐安路交口,114.443443,38.023653,311,住宅区,0,0,小区,223,679,1187
1011,B2094753DA6EA3F4479B,上洋国际,正定107国道与晨光路交叉口北侧,114.463506,38.007026,311,住宅区,0,0,小区,175,472,838
1012,B2094753DA6EA3F4479F,轻工业研究院宿舍,师范街与工农路交口,114.46857,38.033448,311,住宅区,0,0,小区,200,1217,2476
1013,B2094753DA6EA3F44793,华城绿洲二期,槐安路与胜利大街交叉口,114.492828,38.019723,311,住宅区,3,1,小区,126,684,2076
1014,B2094753DA6EA3F44899,康泰园,裕华西路118号,114.455277,38.034301,311,住宅区,0,0,小区,290,922,2145
1015,B2094753DA6EA3F44892,房管局宿舍,胜利大街与煤市街交叉口,114.499919,38.040487,311,住宅区,0,0,小区,568,2023,3350
1016,B2094753DA6EA3F4499D,省公安厅宿舍,靶场街152号,114.453678,38.032391,311,住宅区,0,0,小区,329,840,1947
1017,B2094753DA6EA3F5409A,人防宿舍,平安南大街85号,114.503438,38.028673,311,住宅区,0,0,小区,261,1434,3241
1018,B2094753DA6EA3F5409B,23中宿舍,栗康街与健康路交叉口,114.466778,38.051732,311,住宅区,0,0,小区,301,1246,2370
1019,B2094753DA6EA3F54099,富兴苑,中山西路陆军学院斜对过,114.468226,38.042177,311,住宅区,0,0,小区,277,1399,2492
1020,B2094753DA6EA3F54093,钟南小区,友谊大街钟久路交口,114.448711,38.065004,311,住宅区,0,0,小区,149,612,1161
1021,B2094753DA6EA3F54199,六中宿舍,中华南大街与裕华路交口,114.472969,38.03687,311,住宅区,0,0,小区,339,1209,2640
1022,B2094753DA6EA3F54298,商贸局宿舍,新华路466号,114.445889,38.04848,311,住宅区,0,0,小区,171,670,1586
1023,B2094753DA6EA3F5429F,卓达科苑公寓,新石中路与西二环交叉口,114.445653,38.014896,311,住宅区,1,0,小区,124,547,1073
1024,B2094753DA6EA3F54599,省地方税务局宿舍,平安南大街32号,114.501271,38.032527,311,住宅区,0,0,小区,330,1712,3326
1025,B2094753DA6EA3F5469F,18中宿舍,新华路与虹光街交叉口,114.440224,38.051251,311,住宅区,0,0,小区,97,488,1246
1026,B2094753DA6EA3F5479A,紫香兰亭,光华路与建设大街交口,114.513631,38.060037,311,住宅区,0,0,小区,224,1221,2460
1027,B2094753DA6EA3F5489A,西里乡政府宿舍,西里街交长青路西南角,114.457058,38.037022,311,住宅区,1,0,小区,222,1004,2241
1028,B2094753DA6EA3F5499B,棉四生活区,广安大街61号,114.523373,38.048074,311,住宅区,2,2,小区,664,1622,3071
1029,B2094753DA6EA2FC409E,市政公司宿舍,正东路81号,114.507666,38.046849,311,住宅区,6,6,小区,770,1905,3186
1030,B2094753DA6EA2FC4199,十中宿舍,槐安路与城角街交叉口,114.444516,38.024878,311,住宅区,2,1,小区,242,749,1248
1031,B2094753DA6EA2FC429C,心岛怡岸,温塘镇,114.527514,38.044593,311,住宅区,0,0,小区,518,1802,3320
1032,B2094753DA6EA2FC439F,众美凤凰城二期,翟营大街与南二环交叉口,114.553403,38.000052,311,住宅区,4,1,小区,47,243,684
1033,B2094753DA6EA2FC4492,中心城,中山西路48号,114.482474,38.04221,311,住宅区,0,0,小区,645,1402,2921
1034,B2094753DA6EA2FC4493,蓝天花园,光华路105号,114.512783,38.059184,311,住宅区,0,0,小区,275,1382,2544
1035,B2094753DA6EA2FC4598,滨冠苑,新华西路武警医院对面,114.420183,38.052696,311,住宅区,0,0,小区,7,120,456
1036,B2094753DA6EA2FC469E,佳琳公寓,方盛路8号,114.551525,37.981805,311,住宅区,0,0,小区,1,27,79
1037,B2094753DA6EA2FC4999,37度七金苑,石铜路与南二环交叉口,114.44664,38.005099,311,住宅区,65,26,小区,61,320,705
1038,B2094753DA6EA2FC499C,西雅住宅小区,建国路666号,114.43162,38.029095,311,住宅区,1,0,小区,78,497,894
1039,B2094753DA6EA2FD4098,绿嘉风景,仓丰路49号,114.507151,38.008641,311,住宅区,0,0,小区,146,467,1085
1040,B2094753DA6EA2FD4598,850厂宿舍,东岗路42号,114.535625,38.016198,311,住宅区,2,1,小区,267,1089,1887
1041,B2094753DA6EA2FD479B,筑凯家园,友谊大街合作路交口,114.452391,38.053785,311,住宅区,0,0,小区,189,808,1837
1042,B2094753DA6EA2FD489C,阜康路33号,阜康路33号,114.499222,38.048649,311,住宅区,0,0,小区,465,1963,3301
1043,B2094753DA6EA2FD4893,太行宿舍,中华北大街与和平路交叉口,114.479363,38.063112,311,住宅区,0,0,小区,205,989,2190
1044,B2094753DA6EA2FD4998,24中宿舍,自强路174号,114.472518,38.039946,311,住宅区,0,0,小区,394,1291,2731
1045,B2094750D56AA3FE4393,温莎公爵,红旗大街与南二环交叉口南行300米路东,114.461,38.003115,311,住宅区,0,0,小区,133,421,675
1046,B2094750D56AA3FE4493,新大院,桥西区友谊大街与育新路交口西行200米路南,114.448223,38.011139,311,住宅区,1,0,小区,132,492,969
1047,B2094750D56AA3FE479E,良城逸景,石铜路与南二环交叉口西南角(规划市政公园西邻),114.443185,38.003645,311,住宅区,32,19,小区,31,252,609
1048,B2094750D56AA0FA4392,弘石湾,北二环与东三庄街交口南行50米路西,114.46018,38.079582,311,住宅区,0,0,小区,114,490,1008
1049,B2094750D56AABF9419D,云顶,槐安路与城角庄街交口东南,114.444451,38.024244,311,住宅区,0,0,小区,236,747,1234
1050,B2094750D56BAAFA479F,北杜花园二期,工农路时光街交口南行100米,114.428315,38.031935,311,住宅区,1,0,小区,72,380,809
1051,B2094750DB6EAAFC4998,紫晶天域,平安北大街与和平东路交叉口西北角,114.49991,38.055453,311,住宅区,9,5,小区,197,1578,3206
1052,B2094753DA6EA5F9419B,棉二生活区,光华路与外贸街交叉口,114.519306,38.047331,311,住宅区,0,0,小区,830,1746,3022
1053,B2094753DA6EA5F9429F,防疫站宿舍,槐岭路34号,114.531548,38.025377,311,住宅区,0,0,小区,442,1308,3057
1054,B2094753DA6EA5F94799,税校宿舍,桥西新石南路,114.456382,38.011701,311,住宅区,0,0,小区,227,605,1047
1055,B2094753DA6EA5F94899,东五里新村东区,红旗大街汇新路东行,114.465094,37.999857,311,住宅区,1,1,小区,74,355,565
1056,B2094753DA6EA5FA409A,信达花园,永泰街88号,114.474428,38.05458,311,住宅区,0,0,小区,372,1232,2480
1057,B2094753DA6EA5FA4293,红人公馆,宁安路168号,114.475737,38.053785,311,住宅区,2,0,小区,355,1252,2564
1058,B2094753DA6EA5FA4499,无线电四厂,槐中路与青园街交叉口,114.506636,38.033253,311,住宅区,0,0,小区,421,1681,3406
1059,B2094750D56AA3FE449E,众美凤凰台意风,建华大街与南二环交叉口南行200米路西,114.545871,38.00154,311,住宅区,15,13,小区,39,302,870
1060,B2094753DA6EA3FB429E,天滋嘉园,大经街与煤市路交叉口,114.497205,38.041357,311,住宅区,0,0,小区,545,1983,3326
1061,B2094753DA6EA3FB4398,龚尚苑,裕华东路,114.502623,38.035281,311,住宅区,0,0,小区,481,1828,3380
1062,B2094753DA6EA3FB4498,唯C时尚广场,中华北大街,114.477003,38.065494,311,住宅区,0,0,小区,236,893,1995
1063,B2094753DA6EA2FE4099,先天下小区,育才街88号,114.527664,38.041467,311,住宅区,0,0,小区,473,1880,3411
1064,B2094753DA6EA2FE4198,玉成东区,城角街与新石南路交叉口,114.443378,38.013645,311,住宅区,0,0,小区,92,470,945
1065,B2094753DA6EA2FE419F,军械小区,储煤路泰华街交口,114.466166,38.070393,311,住宅区,0,0,小区,184,795,1450
1066,B2094753DA6EA2FE429D,保险公司宿舍,友谊南大街32号,114.449601,38.03425,311,住宅区,0,0,小区,359,844,1694
1067,B2094753DA6EA2FE439C,华平嘉园,和平东路138号,114.508052,38.050271,311,住宅区,0,0,小区,610,1790,3148
1068,B2094753DA6EA2FE459D,迎宾苑,体育大街与槐北路交口,114.531806,38.031479,311,住宅区,0,0,小区,389,1634,3395
1069,B2094753DA6EA2FE469A,电大街78号院,电大街78号院,114.457755,38.067521,311,住宅区,0,0,小区,198,735,1368
1070,B2094753DA6EA2FE4699,中华家园,中华南大街与新石中路交口,114.478612,38.012851,311,住宅区,0,0,小区,150,473,1222
1071,B2094753DA6EA2FF4093,天河观月,青园街与东岗路交口,114.520862,38.010788,311,住宅区,0,0,小区,204,651,1519
1072,B2094753DA6EA2FF4298,如意商务公寓,中山路166号,114.506571,38.04303,311,住宅区,1,1,小区,793,2004,3273
1073,B2094753DA6EA2FF4292,御景江山,光华路7号,114.502194,38.060662,311,住宅区,0,0,小区,191,1071,2931
1074,B2094753DA6EA2FF439C,长征鞋厂宿舍,工农路与师范街交叉口,114.46666,38.031529,311,住宅区,0,0,小区,188,1134,2304
1075,B2094753DA6EA2FF4492,香榭里二期香情苑,东风路与休门街交口往西200米路南,114.50479,38.024464,311,住宅区,0,0,小区,265,997,2852
1076,B2094753DA6EA2FF469A,广安苑,广安街与谈南路交叉口,114.522761,38.047753,311,住宅区,1,0,小区,683,1639,3062
1077,B2094753DA6EA2FF4699,lcgi,桥西区槐安路与红旗大街交叉口西南角,114.459665,38.023636,311,住宅区,0,0,小区,190,931,1733
1078,B2094753DA6EA2FF4693,卓泰博茗苑,建华大街与南二环口南侧,114.548264,37.999139,311,住宅区,0,0,小区,31,252,722
1079,B2094753DA6EA2FF499C,颐和新新家园,距友谊大街两分钟路程,114.451286,38.031369,311,住宅区,0,0,小区,361,823,1756
1080,B2094753DA6EA2FF4993,万信缘溪堂,新华北城路35号,114.458139,38.074058,311,住宅区,0,0,小区,159,607,1187
1081,B2094753DA6EA2F8409F,水庭世家,水上公园附近,114.457562,38.074599,311,住宅区,0,0,小区,156,585,1149
1082,B2094753DA6EA2F8419E,平安万和园,东平路8号,114.497538,38.017255,311,住宅区,5,2,小区,155,595,1846
1083,B2094753DA6EA2F8429C,省供销社宿舍,长青路40号,114.51052,38.025884,311,住宅区,0,0,小区,302,1393,3039
1084,B2094753DA6EA2F8439C,喜竹园,槐安西路与红旗大街交口,114.459504,38.025639,311,住宅区,0,0,小区,201,969,1877
1085,B2094753DA6EA2F84392,品汇商务公寓,中山西路81号,114.486605,38.04461,311,住宅区,0,0,小区,607,1623,3090
1086,B2094753DA6EA2F8449F,东简良新村,和平西路与开泰街交叉口,114.429431,38.062284,311,住宅区,0,0,小区,29,159,581
1087,B2094753DA6EA2F8469E,石药宿舍,中山路与长兴街交叉口,114.46975,38.032865,311,住宅区,0,0,小区,212,1205,2515
1088,B2094753DA6EA2FB4699,庄伙小区,胜利北街与北二环交叉口,114.495671,38.053228,311,住宅区,0,0,小区,197,1678,3266
1089,B2094753DA6EA2FB4799,棉七宿舍,平安南大街与裕华西路交叉口,114.495671,38.035814,311,住宅区,1,0,小区,315,1786,3241
1090,B2094753DA6EA2FB489E,医药外贸宿舍,电大街28中对面,114.459622,38.06818,311,住宅区,0,0,小区,210,722,1400
1091,B2094753DA6EA2FB4999,农业局宿舍,建设南大街30号,114.519811,38.027676,311,住宅区,0,0,小区,331,1661,3158
1092,B2094753DA6EA2F4409C,3502宿舍,新华西路武警医院附近,114.423809,38.025242,311,住宅区,0,0,小区,49,195,628
1093,B2094753DA6EA2F44192,城角庄北区,西二环与裕华路交口东行200米,114.440675,38.024954,311,住宅区,1,0,小区,176,674,1119
1094,B2094753DA6EA2F4429D,兴邦商住公寓,站前街18号,114.489384,38.048057,311,住宅区,0,0,小区,504,1713,3274
1095,B2094753DA6EA2F44492,烟草公司宿舍,工农路与城角街交叉口,114.458957,38.031073,311,住宅区,0,0,小区,264,966,2128
1096,B2094753DA6EA2F4479B,荣盛阿尔卡迪亚,和平东路与平安大街交叉口,114.501883,38.055399,311,住宅区,24,13,小区,249,1606,3155
1097,B2094753DA6EA2F54098,西环新村,新华路与西二环交叉口,114.435428,38.048995,311,住宅区,0,0,小区,104,431,1089
1098,B2094753DA6EA2F54092,香榭里,槐安路与建设大街交叉口,114.497827,38.021388,311,住宅区,0,0,小区,203,769,2469
1099,B2094753DA6EA2F54299,省外贸宿舍,和平西路555号,114.451168,38.062385,311,住宅区,0,0,小区,150,654,1389
1100,B2094753DA6EA2F5429C,38中宿舍,高柱路与高东街交口,114.474353,38.075334,311,住宅区,0,0,小区,175,674,1337
1101,B2094753DA6EA2F54293,建胜路6号院,桥东区建胜路6号,114.507354,38.019925,311,住宅区,0,0,小区,254,811,2428
1102,B2094753DA6EA2F5469F,河纺宿舍,中山东路436号,114.473827,38.043495,311,住宅区,0,0,小区,465,1329,2647
1103,B2094753DA6EA2F5479E,东平家园,平安南大街与东平路交叉口,114.500821,38.016545,311,住宅区,1,1,小区,175,589,1806
1104,B2094753DA6EA2F54899,九德旺星阁,体育大街南二环,114.535196,38.001303,311,住宅区,0,0,小区,34,331,957
1105,B2094753DA6EA2F54998,颐康小区,友谊南大街66号,114.452155,38.032087,311,住宅区,0,0,小区,357,818,1832
1106,B2094753DA6EA1FC409E,水产局宿舍,体育南大街与槐安路交叉口,114.532653,38.022613,311,住宅区,0,0,小区,424,1260,2743
1107,B2094753DA6EA1FC419B,电力研究院宿舍,体育大街槐中路,114.532664,38.027067,311,住宅区,1,1,小区,450,1365,3157
1108,B2094753DA6EA1FC419E,青南小区,青园街与东岗路交叉口,114.520047,38.010754,311,住宅区,0,0,小区,215,661,1486
1109,B2094753DA6EA1FC429A,省电大宿舍,和平西路481号,114.457659,38.060882,311,住宅区,0,0,小区,263,752,1816
1110,B2094753DA6EA1FC449D,尹泰花园三期,红旗大街二印宿舍北面,114.461832,37.986321,311,住宅区,1,1,小区,13,54,212
1111,B2094753DA6EA1FC4599,颐源百丽,友谊南大街23号,114.45208,38.040343,311,住宅区,0,0,小区,265,899,2012
1112,B2094753DA6EA1FF489F,东五里老年公寓,汇新路与汇宁街,114.465179,37.996349,311,住宅区,0,0,小区,45,232,486
1113,B2094753DA6EA1FF499B,电大街24号院,电大街24号,114.458013,38.060831,311,住宅区,0,0,小区,264,759,1833
1114,B2094753DA6EA1FF499D,66号住宅,南长街66号,114.483891,38.032577,311,住宅区,0,0,小区,269,1220,2809
1115,B2094753DA6EA1F8409C,柴油机厂宿舍,平安南大街阳光大厦对过,114.503825,38.033355,311,住宅区,1,1,小区,351,1712,3417
1116,B2094753DA6EA1F8459F,天滋国际,中山东路和广安大街交口,114.523201,38.044154,311,住宅区,0,0,小区,681,1794,3208
1117,B2094753DA6EA1F8469B,范东小区,东风路平安大街交口,114.50125,38.023754,311,住宅区,0,0,小区,235,876,2776
1118,B2094753DA6EA1F8479D,玉成西区,新石中路与城角街交叉口,114.443293,38.033169,311,住宅区,0,0,小区,278,740,1291
1119,B2094753DA69A7FC4492,水勘院宿舍,兴苑街54号,114.518738,38.028943,311,住宅区,0,0,小区,295,1742,3215
